date_range,state,lake,chance_cyanoHAB,lat,lon,COMID,date_start,date_end,label
Nov-03-2024 to Nov-09-2024,ME,Pleasant Lake,0.15,46.02266,-68.1624,759,2024-11-03,2024-11-09,Pleasant Lake </br> 0.15%
Nov-03-2024 to Nov-09-2024,ME,Jackson Brook Lake,0.76,45.53332,-67.7441,1637,2024-11-03,2024-11-09,Jackson Brook Lake </br> 0.76%
Nov-03-2024 to Nov-09-2024,ME,Wytopitlock Lake,0.29,45.79854,-68.1596,2311,2024-11-03,2024-11-09,Wytopitlock Lake </br> 0.29%
Nov-03-2024 to Nov-09-2024,CO,Boyd Lake,0.44,40.43393,-105.033,11646,2024-11-03,2024-11-09,Boyd Lake </br> 0.44%
Nov-03-2024 to Nov-09-2024,CO,Lake Loveland,0.4,40.412350000000004,-105.087,11682,2024-11-03,2024-11-09,Lake Loveland </br> 0.4%
Nov-03-2024 to Nov-09-2024,CO,Carter Lake Reservoir,0.28,40.33504,-105.218,11816,2024-11-03,2024-11-09,Carter Lake Reservoir </br> 0.28%
Nov-03-2024 to Nov-09-2024,FL,Rodgers River Bay,0.43,25.56711,-81.0981,84918,2024-11-03,2024-11-09,Rodgers River Bay </br> 0.43%
Nov-03-2024 to Nov-09-2024,FL,West Lake,70.85,25.20776,-80.824700000000007,86672,2024-11-03,2024-11-09,West Lake </br> 70.85%
Nov-03-2024 to Nov-09-2024,FL,Cuthbert Lake,94.6,25.20805,-80.7758,86678,2024-11-03,2024-11-09,Cuthbert Lake </br> 94.6%
Nov-03-2024 to Nov-09-2024,FL,Seven Palm Lake,56.01,25.1935,-80.7295,86706,2024-11-03,2024-11-09,Seven Palm Lake </br> 56.01%
Nov-03-2024 to Nov-09-2024,FL,Monroe Lake,40.84,25.17788,-80.7405,86758,2024-11-03,2024-11-09,Monroe Lake </br> 40.84%
Nov-03-2024 to Nov-09-2024,FL,Bear Lake,56.84,25.16884,-80.9597,86782,2024-11-03,2024-11-09,Bear Lake </br> 56.84%
Nov-03-2024 to Nov-09-2024,FL,Coot Bay Pond,6.34,25.19438,-80.9166,89704,2024-11-03,2024-11-09,Coot Bay Pond </br> 6.34%
Nov-03-2024 to Nov-09-2024,FL,Lake Ingraham,6.97,25.15963,-81.1121,91346,2024-11-03,2024-11-09,Lake Ingraham </br> 6.97%
Nov-03-2024 to Nov-09-2024,CO,Marston Lake,0.33,39.62961,-105.068,187905,2024-11-03,2024-11-09,Marston Lake </br> 0.33%
Nov-03-2024 to Nov-09-2024,CO,Chatfield Lake,0.36,39.54464,-105.067,188031,2024-11-03,2024-11-09,Chatfield Lake </br> 0.36%
Nov-03-2024 to Nov-09-2024,TX,Sal del Ray,0.28,26.5372,-98.0564,201345,2024-11-03,2024-11-09,Sal del Ray </br> 0.28%
Nov-03-2024 to Nov-09-2024,TX,La Sal Vieja,0.31,26.53074,-97.8765,202621,2024-11-03,2024-11-09,La Sal Vieja </br> 0.31%
Nov-03-2024 to Nov-09-2024,TX,Unit Number Two,99.68,26.4129,-97.9464,204341,2024-11-03,2024-11-09,Unit Number Two </br> 99.68%
Nov-03-2024 to Nov-09-2024,TX,Laguna Atascosa,3.45,26.23655,-97.3888,204781,2024-11-03,2024-11-09,Laguna Atascosa </br> 3.45%
Nov-03-2024 to Nov-09-2024,TX,Reservoir Number One,97.3,26.0565,-97.7273,205377,2024-11-03,2024-11-09,Reservoir Number One </br> 97.3%
Nov-03-2024 to Nov-09-2024,TX,Resaca de La Palma Reservoir,99.83,25.97196,-97.5511,207611,2024-11-03,2024-11-09,Resaca de La Palma Reservoir </br> 99.83%
Nov-03-2024 to Nov-09-2024,CO,Jackson Reservoir,38.95,40.39189,-104.074,224233,2024-11-03,2024-11-09,Jackson Reservoir </br> 38.95%
Nov-03-2024 to Nov-09-2024,CO,Riverside Reservoir,10.74,40.33816,-104.263,224311,2024-11-03,2024-11-09,Riverside Reservoir </br> 10.74%
Nov-03-2024 to Nov-09-2024,CO,Lower Latham Reservoir,32.27,40.34583,-104.639,224361,2024-11-03,2024-11-09,Lower Latham Reservoir </br> 32.27%
Nov-03-2024 to Nov-09-2024,CO,Empire Reservoir,28.87,40.2678,-104.163,224443,2024-11-03,2024-11-09,Empire Reservoir </br> 28.87%
Nov-03-2024 to Nov-09-2024,CO,Milton Reservoir,8.67,40.2264,-104.642,224573,2024-11-03,2024-11-09,Milton Reservoir </br> 8.67%
Nov-03-2024 to Nov-09-2024,CO,Standley Lake,1.14,39.86374,-105.124,228235,2024-11-03,2024-11-09,Standley Lake </br> 1.14%
Nov-03-2024 to Nov-09-2024,CO,Barr Lake,4.94,39.94319,-104.764,228919,2024-11-03,2024-11-09,Barr Lake </br> 4.94%
Nov-03-2024 to Nov-09-2024,CO,Cherry Creek Lake,1.74,39.64032,-104.855,229217,2024-11-03,2024-11-09,Cherry Creek Lake </br> 1.74%
Nov-03-2024 to Nov-09-2024,OK,Lake Hefner,1.53,35.56682,-97.5951,253350,2024-11-03,2024-11-09,Lake Hefner </br> 1.53%
Nov-03-2024 to Nov-09-2024,MI,Round Lake,0.24,46.15092,-86.7447,271501,2024-11-03,2024-11-09,Round Lake </br> 0.24%
Nov-03-2024 to Nov-09-2024,OK,Shell Lake,18.08,36.19126,-96.1797,368347,2024-11-03,2024-11-09,Shell Lake </br> 18.08%
Nov-03-2024 to Nov-09-2024,OK,Webbers Falls Reservoir,0.32,35.60737,-95.221,381408,2024-11-03,2024-11-09,Webbers Falls Reservoir </br> 0.32%
Nov-03-2024 to Nov-09-2024,OK,Canton Lake,31.32,36.12569,-98.6147,389774,2024-11-03,2024-11-09,Canton Lake </br> 31.32%
Nov-03-2024 to Nov-09-2024,OK,Tenkiller Lake,0.2,35.7169,-94.9482,399680,2024-11-03,2024-11-09,Tenkiller Lake </br> 0.2%
Nov-03-2024 to Nov-09-2024,OK,Tenkiller Ferry Lake,0.23,35.63059,-95.0342,402142,2024-11-03,2024-11-09,Tenkiller Ferry Lake </br> 0.23%
Nov-03-2024 to Nov-09-2024,OK,Lake Murray,0.62,34.07157,-97.0757,423160,2024-11-03,2024-11-09,Lake Murray </br> 0.62%
Nov-03-2024 to Nov-09-2024,OK,Stanley Draper Lake,0.72,35.35016,-97.356,481582,2024-11-03,2024-11-09,Stanley Draper Lake </br> 0.72%
Nov-03-2024 to Nov-09-2024,OK,Lake Thunderbird,19.12,35.23374,-97.2577,481656,2024-11-03,2024-11-09,Lake Thunderbird </br> 19.12%
Nov-03-2024 to Nov-09-2024,OK,Lake McMurtry,2.17,36.18245,-97.1858,491560,2024-11-03,2024-11-09,Lake McMurtry </br> 2.17%
Nov-03-2024 to Nov-09-2024,OK,Lake Carl Blackwell,14.09,36.13618,-97.228,491604,2024-11-03,2024-11-09,Lake Carl Blackwell </br> 14.09%
Nov-03-2024 to Nov-09-2024,OK,Lake McAlester,0.73,35.03047,-95.8296,510415,2024-11-03,2024-11-09,Lake McAlester </br> 0.73%
Nov-03-2024 to Nov-09-2024,OK,S Lake Eufaula,2.1,34.95741,-95.6102,513979,2024-11-03,2024-11-09,S Lake Eufaula </br> 2.1%
Nov-03-2024 to Nov-09-2024,OK,Dripping Springs Lake,0.34,35.56111,-96.1173,534887,2024-11-03,2024-11-09,Dripping Springs Lake </br> 0.34%
Nov-03-2024 to Nov-09-2024,OK,South Lake,0.28,34.0705,-95.4183,592596,2024-11-03,2024-11-09,South Lake </br> 0.28%
Nov-03-2024 to Nov-09-2024,OK,Pine Creek Reservoir,10.38,34.15248,-95.103,617546,2024-11-03,2024-11-09,Pine Creek Reservoir </br> 10.38%
Nov-03-2024 to Nov-09-2024,OK,Broken Bow Lake,0.34,34.21277,-94.6843,630011,2024-11-03,2024-11-09,Broken Bow Lake </br> 0.34%
Nov-03-2024 to Nov-09-2024,OK,Lake Ellsworth,12.21,34.82354,-98.3534,672210,2024-11-03,2024-11-09,Lake Ellsworth </br> 12.21%
Nov-03-2024 to Nov-09-2024,OK,Lake Lawtonka,16.42,34.75722,-98.5078,672260,2024-11-03,2024-11-09,Lake Lawtonka </br> 16.42%
Nov-03-2024 to Nov-09-2024,OK,Fort Cobb Reservoir,20.91,35.19674,-98.483,681831,2024-11-03,2024-11-09,Fort Cobb Reservoir </br> 20.91%
Nov-03-2024 to Nov-09-2024,ME,Long Lake,1.35,46.625,-69.3767,717696,2024-11-03,2024-11-09,Long Lake </br> 1.35%
Nov-03-2024 to Nov-09-2024,ME,Clear Lake,0.95,46.52027,-69.1287,717824,2024-11-03,2024-11-09,Clear Lake </br> 0.95%
Nov-03-2024 to Nov-09-2024,ME,Heron-Churchill Lakes,0.25,46.37289,-69.3412,719480,2024-11-03,2024-11-09,Heron-Churchill Lakes </br> 0.25%
Nov-03-2024 to Nov-09-2024,ME,Pleasant Lake,0.49,46.47316,-69.1799,719490,2024-11-03,2024-11-09,Pleasant Lake </br> 0.49%
Nov-03-2024 to Nov-09-2024,ME,Spider Lake,0.41,46.44826,-69.2087,719500,2024-11-03,2024-11-09,Spider Lake </br> 0.41%
Nov-03-2024 to Nov-09-2024,ME,Haymock Lake,0.19,46.30324,-69.1849,719644,2024-11-03,2024-11-09,Haymock Lake </br> 0.19%
Nov-03-2024 to Nov-09-2024,ME,Indian Pond,0.1,46.25543,-69.2934,719684,2024-11-03,2024-11-09,Indian Pond </br> 0.1%
Nov-03-2024 to Nov-09-2024,ME,Long Lake,0.21,47.20638,-68.241,723898,2024-11-03,2024-11-09,Long Lake </br> 0.21%
Nov-03-2024 to Nov-09-2024,ME,Mud Lake,0.13,47.15382,-68.292,723936,2024-11-03,2024-11-09,Mud Lake </br> 0.13%
Nov-03-2024 to Nov-09-2024,ME,Square Lake,0.23,47.06451,-68.4067,723938,2024-11-03,2024-11-09,Square Lake </br> 0.23%
Nov-03-2024 to Nov-09-2024,ME,Fish River Lake,1.06,46.82865,-68.7736,725058,2024-11-03,2024-11-09,Fish River Lake </br> 1.06%
Nov-03-2024 to Nov-09-2024,ME,Portage Lake,0.7,46.78602,-68.5091,725074,2024-11-03,2024-11-09,Portage Lake </br> 0.7%
Nov-03-2024 to Nov-09-2024,KS,Perry Lake,1.21,39.18347,-95.4522,746373,2024-11-03,2024-11-09,Perry Lake </br> 1.21%
Nov-03-2024 to Nov-09-2024,ME,Madawaska Lake,1.43,47.02536,-68.2131,802433,2024-11-03,2024-11-09,Madawaska Lake </br> 1.43%
Nov-03-2024 to Nov-09-2024,ME,Squapan Lake,0.75,46.54401,-68.2436,803413,2024-11-03,2024-11-09,Squapan Lake </br> 0.75%
Nov-03-2024 to Nov-09-2024,ME,Millinocket Lake,0.21,46.29874,-68.8853,806283,2024-11-03,2024-11-09,Millinocket Lake </br> 0.21%
Nov-03-2024 to Nov-09-2024,ME,Umcolcus Lake,0.39,46.28783,-68.4356,806301,2024-11-03,2024-11-09,Umcolcus Lake </br> 0.39%
Nov-03-2024 to Nov-09-2024,ME,Millimagassett Lake,0.07,46.28425,-68.7835,806311,2024-11-03,2024-11-09,Millimagassett Lake </br> 0.07%
Nov-03-2024 to Nov-09-2024,ME,Meduxnekeag Lake,0.23,46.09414,-68.0295,817877,2024-11-03,2024-11-09,Meduxnekeag Lake </br> 0.23%
Nov-03-2024 to Nov-09-2024,OK,Lake Yahola,1.94,36.22022,-95.9341,847048,2024-11-03,2024-11-09,Lake Yahola </br> 1.94%
Nov-03-2024 to Nov-09-2024,CO,Holbrook Reservoir,7.76,38.06316,-103.61,914071,2024-11-03,2024-11-09,Holbrook Reservoir </br> 7.76%
Nov-03-2024 to Nov-09-2024,CO,Turquoise Lake,1.06,39.26924,-106.383,916247,2024-11-03,2024-11-09,Turquoise Lake </br> 1.06%
Nov-03-2024 to Nov-09-2024,CO,Twin Lakes,0.48,39.08425,-106.333,916361,2024-11-03,2024-11-09,Twin Lakes </br> 0.48%
Nov-03-2024 to Nov-09-2024,CO,Twin Lakes Reservoir,0.59,39.07928,-106.365,916363,2024-11-03,2024-11-09,Twin Lakes Reservoir </br> 0.59%
Nov-03-2024 to Nov-09-2024,CO,Trinidad Lake,0.33,37.13644,-104.576,936750,2024-11-03,2024-11-09,Trinidad Lake </br> 0.33%
Nov-03-2024 to Nov-09-2024,CO,Lake Henry,33.74,38.26428,-103.709,975120,2024-11-03,2024-11-09,Lake Henry </br> 33.74%
Nov-03-2024 to Nov-09-2024,CO,Lake Meredith,29.81,38.19088,-103.703,975154,2024-11-03,2024-11-09,Lake Meredith </br> 29.81%
Nov-03-2024 to Nov-09-2024,TX,Lake A,0.14,33.10272,-95.0664,1010018,2024-11-03,2024-11-09,Lake A </br> 0.14%
Nov-03-2024 to Nov-09-2024,TX,Lake Cypress Springs,11.35,33.05924,-95.1886,1010164,2024-11-03,2024-11-09,Lake Cypress Springs </br> 11.35%
Nov-03-2024 to Nov-09-2024,TX,Lake O' the Pines,3.77,32.80087,-94.6107,1010832,2024-11-03,2024-11-09,Lake O' the Pines </br> 3.77%
Nov-03-2024 to Nov-09-2024,ME,Spencer Pond,0.38,45.74255,-69.5687,1021378,2024-11-03,2024-11-09,Spencer Pond </br> 0.38%
Nov-03-2024 to Nov-09-2024,ME,First Roach Pond,0.24,45.65463,-69.3792,1021504,2024-11-03,2024-11-09,First Roach Pond </br> 0.24%
Nov-03-2024 to Nov-09-2024,ME,Mountain View Pond,0.28,45.51955,-69.6901,1021692,2024-11-03,2024-11-09,Mountain View Pond </br> 0.28%
Nov-03-2024 to Nov-09-2024,ME,Long Pond,0.46,45.62674,-70.0871,1023054,2024-11-03,2024-11-09,Long Pond </br> 0.46%
Nov-03-2024 to Nov-09-2024,ME,Wood Pond,0.25,45.61972,-70.2776,1023066,2024-11-03,2024-11-09,Wood Pond </br> 0.25%
Nov-03-2024 to Nov-09-2024,ME,Attean Pond,0.2,45.56945,-70.2854,1023120,2024-11-03,2024-11-09,Attean Pond </br> 0.2%
Nov-03-2024 to Nov-09-2024,ME,Joes Hole,0.53,45.30665,-69.8405,1024266,2024-11-03,2024-11-09,Joes Hole </br> 0.53%
Nov-03-2024 to Nov-09-2024,ME,Fish Pond,0.3,45.40137,-70.2919,1031381,2024-11-03,2024-11-09,Fish Pond </br> 0.3%
Nov-03-2024 to Nov-09-2024,ME,Flagstaff Lake,0.24,45.19867,-70.3081,1031669,2024-11-03,2024-11-09,Flagstaff Lake </br> 0.24%
Nov-03-2024 to Nov-09-2024,ME,West Carry Pond,0.4,45.16877,-70.1111,1031729,2024-11-03,2024-11-09,West Carry Pond </br> 0.4%
Nov-03-2024 to Nov-09-2024,GA,Lake Sinclair,0.47,33.20784,-83.2584,1054153,2024-11-03,2024-11-09,Lake Sinclair </br> 0.47%
Nov-03-2024 to Nov-09-2024,MN,White Bear Lake,0.19,45.0773,-92.9805,1097324,2024-11-03,2024-11-09,White Bear Lake </br> 0.19%
Nov-03-2024 to Nov-09-2024,MN,Coon Lake,0.31,45.30549,-93.1664,1098396,2024-11-03,2024-11-09,Coon Lake </br> 0.31%
Nov-03-2024 to Nov-09-2024,MN,Bald Eagle Lake,4.57,45.11416,-93.0156,1099052,2024-11-03,2024-11-09,Bald Eagle Lake </br> 4.57%
Nov-03-2024 to Nov-09-2024,MN,Lower Lake (Lake Minnetonka),0.19,44.93976,-93.556,1101590,2024-11-03,2024-11-09,Lower Lake (Lake Minnetonka) </br> 0.19%
Nov-03-2024 to Nov-09-2024,MN,West Arm (Lake Minnetonka),26.71,44.94627,-93.6429,1101642,2024-11-03,2024-11-09,West Arm (Lake Minnetonka) </br> 26.71%
Nov-03-2024 to Nov-09-2024,MN,Lake Calhoun,0.44,44.9418,-93.3118,1101684,2024-11-03,2024-11-09,Lake Calhoun </br> 0.44%
Nov-03-2024 to Nov-09-2024,MN,Lake Minnetonka,0.36,44.91341,-93.6393,1101734,2024-11-03,2024-11-09,Lake Minnetonka </br> 0.36%
Nov-03-2024 to Nov-09-2024,TX,B A Steinhagen Lake,0.51,30.85543,-94.1948,1111211,2024-11-03,2024-11-09,B A Steinhagen Lake </br> 0.51%
Nov-03-2024 to Nov-09-2024,TX,Lake Sulphur Springs,0.93,33.17231,-95.629,1122789,2024-11-03,2024-11-09,Lake Sulphur Springs </br> 0.93%
Nov-03-2024 to Nov-09-2024,TX,Wright Patman Lake,11.14,33.27829,-94.2707,1127701,2024-11-03,2024-11-09,Wright Patman Lake </br> 11.14%
Nov-03-2024 to Nov-09-2024,TX,Goss Lake,0.39,33.27757,-94.0697,1127853,2024-11-03,2024-11-09,Goss Lake </br> 0.39%
Nov-03-2024 to Nov-09-2024,TX,River Crest Reservoir,62.47,33.39157,-95.1555,1128997,2024-11-03,2024-11-09,River Crest Reservoir </br> 62.47%
Nov-03-2024 to Nov-09-2024,LA,Black Bayou Lake,0.28,32.91292,-93.95,1135442,2024-11-03,2024-11-09,Black Bayou Lake </br> 0.28%
Nov-03-2024 to Nov-09-2024,TX,Lake Tyler,0.6,32.23912,-95.1512,1147787,2024-11-03,2024-11-09,Lake Tyler </br> 0.6%
Nov-03-2024 to Nov-09-2024,TX,Lake Striker,0.58,31.95969,-94.989,1148575,2024-11-03,2024-11-09,Lake Striker </br> 0.58%
Nov-03-2024 to Nov-09-2024,TX,Lake Nacogdoches,0.37,31.62249,-94.8184,1149471,2024-11-03,2024-11-09,Lake Nacogdoches </br> 0.37%
Nov-03-2024 to Nov-09-2024,TX,Ester Lake,1.15,31.21716,-94.2536,1158647,2024-11-03,2024-11-09,Ester Lake </br> 1.15%
Nov-03-2024 to Nov-09-2024,TX,Kurth Lake,1.03,31.44449,-94.691,1158651,2024-11-03,2024-11-09,Kurth Lake </br> 1.03%
Nov-03-2024 to Nov-09-2024,CO,Williams Fork Reservoir,0.6,40.01526,-106.21,1230577,2024-11-03,2024-11-09,Williams Fork Reservoir </br> 0.6%
Nov-03-2024 to Nov-09-2024,CO,Grand Lake,0.44,40.23162,-105.835,1233435,2024-11-03,2024-11-09,Grand Lake </br> 0.44%
Nov-03-2024 to Nov-09-2024,CO,Lake Granby,0.16,40.15546,-105.849,1233515,2024-11-03,2024-11-09,Lake Granby </br> 0.16%
Nov-03-2024 to Nov-09-2024,TX,White Rock Lake,3.72,32.83606,-96.7226,1259469,2024-11-03,2024-11-09,White Rock Lake </br> 3.72%
Nov-03-2024 to Nov-09-2024,TX,Trinidad Lake,71.97,32.1175,-96.0936,1262105,2024-11-03,2024-11-09,Trinidad Lake </br> 71.97%
Nov-03-2024 to Nov-09-2024,TX,Lake Worth,43.91,32.80908,-97.4615,1267710,2024-11-03,2024-11-09,Lake Worth </br> 43.91%
Nov-03-2024 to Nov-09-2024,TX,Lake Weatherford,69.15,32.78419,-97.6875,1267786,2024-11-03,2024-11-09,Lake Weatherford </br> 69.15%
Nov-03-2024 to Nov-09-2024,TX,Lake Arlington,31.93,32.70435,-97.2132,1267898,2024-11-03,2024-11-09,Lake Arlington </br> 31.93%
Nov-03-2024 to Nov-09-2024,TX,Benbrook Lake,6.97,32.62671,-97.4682,1267968,2024-11-03,2024-11-09,Benbrook Lake </br> 6.97%
Nov-03-2024 to Nov-09-2024,TX,Mountain Creek Lake,59.25,32.71806,-96.9614,1269548,2024-11-03,2024-11-09,Mountain Creek Lake </br> 59.25%
Nov-03-2024 to Nov-09-2024,TX,Lavon Lake,20.81,33.10404,-96.4712,1291638,2024-11-03,2024-11-09,Lavon Lake </br> 20.81%
Nov-03-2024 to Nov-09-2024,TX,New Terrell City Lake,47.1,32.74228,-96.1728,1296744,2024-11-03,2024-11-09,New Terrell City Lake </br> 47.1%
Nov-03-2024 to Nov-09-2024,TX,Lake Bridgeport,0.53,33.21846,-97.8659,1304891,2024-11-03,2024-11-09,Lake Bridgeport </br> 0.53%
Nov-03-2024 to Nov-09-2024,CO,Green Mountain Reservoir,0.83,39.87126,-106.285,1311881,2024-11-03,2024-11-09,Green Mountain Reservoir </br> 0.83%
Nov-03-2024 to Nov-09-2024,CO,Dillon Reservoir,1.24,39.60147,-106.058,1312051,2024-11-03,2024-11-09,Dillon Reservoir </br> 1.24%
Nov-03-2024 to Nov-09-2024,CO,Taylor Park Reservoir,0.67,38.83539,-106.58,1332558,2024-11-03,2024-11-09,Taylor Park Reservoir </br> 0.67%
Nov-03-2024 to Nov-09-2024,CO,Steamboat Lake,4.88,40.79592,-106.965,1353298,2024-11-03,2024-11-09,Steamboat Lake </br> 4.88%
Nov-03-2024 to Nov-09-2024,UT,Pelican Lake,0.51,40.19259,-109.682,1371518,2024-11-03,2024-11-09,Pelican Lake </br> 0.51%
Nov-03-2024 to Nov-09-2024,AZ,Many Farms Lake,1.28,36.35332,-109.583,1408803,2024-11-03,2024-11-09,Many Farms Lake </br> 1.28%
Nov-03-2024 to Nov-09-2024,TX,Bardwell Lake,49.53,32.28141,-96.6641,1445978,2024-11-03,2024-11-09,Bardwell Lake </br> 49.53%
Nov-03-2024 to Nov-09-2024,TX,Fairfield Lake,1.23,31.79518,-96.062,1454297,2024-11-03,2024-11-09,Fairfield Lake </br> 1.23%
Nov-03-2024 to Nov-09-2024,TX,Houston County Lake,1.36,31.41438,-95.5776,1455553,2024-11-03,2024-11-09,Houston County Lake </br> 1.36%
Nov-03-2024 to Nov-09-2024,TX,Lewis Creek Reservoir,0.25,30.43564,-95.5352,1466524,2024-11-03,2024-11-09,Lewis Creek Reservoir </br> 0.25%
Nov-03-2024 to Nov-09-2024,TX,Sabine Lake,26.23,29.89961,-93.8889,1475947,2024-11-03,2024-11-09,Sabine Lake </br> 26.23%
Nov-03-2024 to Nov-09-2024,TX,Knight Lake,4.43,29.70597,-93.9862,1476649,2024-11-03,2024-11-09,Knight Lake </br> 4.43%
Nov-03-2024 to Nov-09-2024,TX,Sabine Lake,0.3,29.88602,-93.8433,1477365,2024-11-03,2024-11-09,Sabine Lake </br> 0.3%
Nov-03-2024 to Nov-09-2024,TX,Clam Lake,0.52,29.68687,-94.0986,1478803,2024-11-03,2024-11-09,Clam Lake </br> 0.52%
Nov-03-2024 to Nov-09-2024,TX,Woodlands Golf Course Lake,2.51,30.7671,-95.1656,1492358,2024-11-03,2024-11-09,Woodlands Golf Course Lake </br> 2.51%
Nov-03-2024 to Nov-09-2024,TX,Lake Charlotte,54.82,29.868,-94.7257,1514105,2024-11-03,2024-11-09,Lake Charlotte </br> 54.82%
Nov-03-2024 to Nov-09-2024,TX,Lost Lake,28.82,29.85921,-94.7835,1514129,2024-11-03,2024-11-09,Lost Lake </br> 28.82%
Nov-03-2024 to Nov-09-2024,TX,Lake Anahuac,48.62,29.80275,-94.684,1514219,2024-11-03,2024-11-09,Lake Anahuac </br> 48.62%
Nov-03-2024 to Nov-09-2024,TX,Cotton Lake,52.59,29.79816,-94.8073,1514331,2024-11-03,2024-11-09,Cotton Lake </br> 52.59%
Nov-03-2024 to Nov-09-2024,TX,Wet Marsh Pond,0.91,29.77277,-94.8163,1514367,2024-11-03,2024-11-09,Wet Marsh Pond </br> 0.91%
Nov-03-2024 to Nov-09-2024,TX,Robinson Lake,21.65,29.58477,-94.5971,1523391,2024-11-03,2024-11-09,Robinson Lake </br> 21.65%
Nov-03-2024 to Nov-09-2024,TX,Lake Surprise,80.22,29.55322,-94.6808,1523509,2024-11-03,2024-11-09,Lake Surprise </br> 80.22%
Nov-03-2024 to Nov-09-2024,CO,Lake Pueblo,0.34,38.26593,-104.753,1531545,2024-11-03,2024-11-09,Lake Pueblo </br> 0.34%
Nov-03-2024 to Nov-09-2024,TX,Clear Lake,32.05,29.55251,-95.061,1562034,2024-11-03,2024-11-09,Clear Lake </br> 32.05%
Nov-03-2024 to Nov-09-2024,TX,Galveston County Industrial Water Reservoir,5.49,29.4387,-94.9747,1573030,2024-11-03,2024-11-09,Galveston County Industrial Water Reservoir </br> 5.49%
Nov-03-2024 to Nov-09-2024,TX,Oyster Lake,0.53,29.12179,-95.1749,1573668,2024-11-03,2024-11-09,Oyster Lake </br> 0.53%
Nov-03-2024 to Nov-09-2024,TX,Salt Lake,1.13,29.03822,-95.2555,1573900,2024-11-03,2024-11-09,Salt Lake </br> 1.13%
Nov-03-2024 to Nov-09-2024,CO,Adobe Creek Reservoir,19.76,38.26192,-103.246,1593551,2024-11-03,2024-11-09,Adobe Creek Reservoir </br> 19.76%
Nov-03-2024 to Nov-09-2024,CO,Neegronda Reservoir,3.94,38.30302,-102.755,1594371,2024-11-03,2024-11-09,Neegronda Reservoir </br> 3.94%
Nov-03-2024 to Nov-09-2024,CO,Queen Reservoir,43.69,38.29501,-102.65,1594373,2024-11-03,2024-11-09,Queen Reservoir </br> 43.69%
Nov-03-2024 to Nov-09-2024,TX,Cowtrap Lake,1.91,28.85446,-95.5224,1613786,2024-11-03,2024-11-09,Cowtrap Lake </br> 1.91%
Nov-03-2024 to Nov-09-2024,TX,Lake Austin,17.2,28.7926,-95.7929,1613898,2024-11-03,2024-11-09,Lake Austin </br> 17.2%
Nov-03-2024 to Nov-09-2024,ME,Rowe Pond,0.18,46.20594,-69.6062,1698272,2024-11-03,2024-11-09,Rowe Pond </br> 0.18%
Nov-03-2024 to Nov-09-2024,ME,Shallow Lake,21.53,46.22598,-69.4799,1698278,2024-11-03,2024-11-09,Shallow Lake </br> 21.53%
Nov-03-2024 to Nov-09-2024,ME,Umbbazooksus Lake,0.14,46.16857,-69.3775,1698316,2024-11-03,2024-11-09,Umbbazooksus Lake </br> 0.14%
Nov-03-2024 to Nov-09-2024,ME,Loon Lake,0.33,46.14701,-69.6392,1698322,2024-11-03,2024-11-09,Loon Lake </br> 0.33%
Nov-03-2024 to Nov-09-2024,ME,Longley Pond,0.21,46.16018,-69.4388,1698326,2024-11-03,2024-11-09,Longley Pond </br> 0.21%
Nov-03-2024 to Nov-09-2024,ME,Nesowadnehunk Lake,0.22,46.04055,-69.096,1698422,2024-11-03,2024-11-09,Nesowadnehunk Lake </br> 0.22%
Nov-03-2024 to Nov-09-2024,ME,Millinocket Lake,0.17,45.75953,-68.7944,1699384,2024-11-03,2024-11-09,Millinocket Lake </br> 0.17%
Nov-03-2024 to Nov-09-2024,ME,Dolby Pond,0.16,45.65227,-68.6306,1699482,2024-11-03,2024-11-09,Dolby Pond </br> 0.16%
Nov-03-2024 to Nov-09-2024,ME,Upper Jo-Mary Lake,0.12,45.60065,-68.962,1699556,2024-11-03,2024-11-09,Upper Jo-Mary Lake </br> 0.12%
Nov-03-2024 to Nov-09-2024,ME,Mud Pond,0.17,45.96272,-69.2872,1700848,2024-11-03,2024-11-09,Mud Pond </br> 0.17%
Nov-03-2024 to Nov-09-2024,ME,Harrington Lake,0.17,45.93605,-69.1621,1700856,2024-11-03,2024-11-09,Harrington Lake </br> 0.17%
Nov-03-2024 to Nov-09-2024,ME,Seboomook Lake,0.83,45.91353,-69.848,1700864,2024-11-03,2024-11-09,Seboomook Lake </br> 0.83%
Nov-03-2024 to Nov-09-2024,ME,Lobster Lake,0.22,45.85474,-69.5238,1700982,2024-11-03,2024-11-09,Lobster Lake </br> 0.22%
Nov-03-2024 to Nov-09-2024,ME,Ragged Lake,0.24,45.82058,-69.3758,1701002,2024-11-03,2024-11-09,Ragged Lake </br> 0.24%
Nov-03-2024 to Nov-09-2024,ME,Rainbow Lake,0.24,45.82396,-69.1166,1701038,2024-11-03,2024-11-09,Rainbow Lake </br> 0.24%
Nov-03-2024 to Nov-09-2024,ME,Third Debsconeag Lake,0.09,45.75816,-69.0303,1701156,2024-11-03,2024-11-09,Third Debsconeag Lake </br> 0.09%
Nov-03-2024 to Nov-09-2024,ME,Grand Lake Seboeis,0.08,46.29646,-68.6503,1710508,2024-11-03,2024-11-09,Grand Lake Seboeis </br> 0.08%
Nov-03-2024 to Nov-09-2024,ME,Snowshoe Lake,0.21,46.25112,-68.6305,1710524,2024-11-03,2024-11-09,Snowshoe Lake </br> 0.21%
Nov-03-2024 to Nov-09-2024,ME,Scraggly Lake,0.08,46.23972,-68.7559,1710542,2024-11-03,2024-11-09,Scraggly Lake </br> 0.08%
Nov-03-2024 to Nov-09-2024,ME,Upper Shin Pond,0.86,46.11806,-68.5386,1710670,2024-11-03,2024-11-09,Upper Shin Pond </br> 0.86%
Nov-03-2024 to Nov-09-2024,ME,Lower Shin Pond,0.38,46.09072,-68.5675,1710720,2024-11-03,2024-11-09,Lower Shin Pond </br> 0.38%
Nov-03-2024 to Nov-09-2024,ME,First Lake,0.21,46.1773,-68.8288,1711354,2024-11-03,2024-11-09,First Lake </br> 0.21%
Nov-03-2024 to Nov-09-2024,ME,Allagash Lake,0.17,46.3203,-69.528,1711940,2024-11-03,2024-11-09,Allagash Lake </br> 0.17%
Nov-03-2024 to Nov-09-2024,ME,Chamberlain Lake,0.07,46.21892,-69.2799,1711958,2024-11-03,2024-11-09,Chamberlain Lake </br> 0.07%
Nov-03-2024 to Nov-09-2024,ME,Mud Pond,0.12,46.17923,-69.3144,1712020,2024-11-03,2024-11-09,Mud Pond </br> 0.12%
Nov-03-2024 to Nov-09-2024,ME,Katahdin Lake,1.08,45.92457,-68.7936,1712532,2024-11-03,2024-11-09,Katahdin Lake </br> 1.08%
Nov-03-2024 to Nov-09-2024,ME,East Branch Lake,0.29,45.5188,-68.7342,1717737,2024-11-03,2024-11-09,East Branch Lake </br> 0.29%
Nov-03-2024 to Nov-09-2024,ME,B Pond,0.28,45.57041,-69.1313,1718135,2024-11-03,2024-11-09,B Pond </br> 0.28%
Nov-03-2024 to Nov-09-2024,ME,Schoodic Lake,0.33,45.37282,-68.9241,1718667,2024-11-03,2024-11-09,Schoodic Lake </br> 0.33%
Nov-03-2024 to Nov-09-2024,ME,Sebec Lake,0.75,45.27684,-69.2764,1720371,2024-11-03,2024-11-09,Sebec Lake </br> 0.75%
Nov-03-2024 to Nov-09-2024,ME,Bald Mountain Pond,0.3,45.25961,-69.7292,1720391,2024-11-03,2024-11-09,Bald Mountain Pond </br> 0.3%
Nov-03-2024 to Nov-09-2024,ME,Salmon Stream Lake,0.32,45.72682,-68.486,1730906,2024-11-03,2024-11-09,Salmon Stream Lake </br> 0.32%
Nov-03-2024 to Nov-09-2024,ME,South Branch Lake,0.15,45.38497,-68.6837,1731562,2024-11-03,2024-11-09,South Branch Lake </br> 0.15%
Nov-03-2024 to Nov-09-2024,ME,Upper Pond,0.14,45.32197,-68.4171,1731638,2024-11-03,2024-11-09,Upper Pond </br> 0.14%
Nov-03-2024 to Nov-09-2024,ME,Madagascal Pond,0.23,45.2961,-68.3479,1731682,2024-11-03,2024-11-09,Madagascal Pond </br> 0.23%
Nov-03-2024 to Nov-09-2024,ME,Cold Stream Pond,0.12,45.26243,-68.5372,1731700,2024-11-03,2024-11-09,Cold Stream Pond </br> 0.12%
Nov-03-2024 to Nov-09-2024,ME,Escutasia Lake,0.31,45.25357,-68.4548,1731730,2024-11-03,2024-11-09,Escutasia Lake </br> 0.31%
Nov-03-2024 to Nov-09-2024,ME,Lower Pistol Lake,0.32,45.189,-68.2163,1731784,2024-11-03,2024-11-09,Lower Pistol Lake </br> 0.32%
Nov-03-2024 to Nov-09-2024,ME,Boyd Lake,1.26,45.17769,-68.9214,1731800,2024-11-03,2024-11-09,Boyd Lake </br> 1.26%
Nov-03-2024 to Nov-09-2024,ME,Saponac Pond,0.51,45.17463,-68.3827,1731806,2024-11-03,2024-11-09,Saponac Pond </br> 0.51%
Nov-03-2024 to Nov-09-2024,ME,Duck Lake,0.23,45.15031,-68.0987,1731832,2024-11-03,2024-11-09,Duck Lake </br> 0.23%
Nov-03-2024 to Nov-09-2024,ME,Nicatous Lake,0.15,45.08184,-68.1502,1731850,2024-11-03,2024-11-09,Nicatous Lake </br> 0.15%
Nov-03-2024 to Nov-09-2024,ME,Abarngamook Lake,0.19,45.11319,-68.1973,1731864,2024-11-03,2024-11-09,Abarngamook Lake </br> 0.19%
Nov-03-2024 to Nov-09-2024,ME,Pushaw Lake,0.26,44.93317,-68.801,1734984,2024-11-03,2024-11-09,Pushaw Lake </br> 0.26%
Nov-03-2024 to Nov-09-2024,ME,Chemo Pond,0.4,44.82346,-68.5732,1735158,2024-11-03,2024-11-09,Chemo Pond </br> 0.4%
Nov-03-2024 to Nov-09-2024,ME,Brewer Lake,1.07,44.71002,-68.7264,1735266,2024-11-03,2024-11-09,Brewer Lake </br> 1.07%
Nov-03-2024 to Nov-09-2024,ME,Alamoosook Lake,0.27,44.58323,-68.7005,1735412,2024-11-03,2024-11-09,Alamoosook Lake </br> 0.27%
Nov-03-2024 to Nov-09-2024,NY,Pepacton Reservoir,0.64,42.08827,-74.8707,1748473,2024-11-03,2024-11-09,Pepacton Reservoir </br> 0.64%
Nov-03-2024 to Nov-09-2024,MN,Whiteface Reservoir,0.74,47.30383,-92.168,1768752,2024-11-03,2024-11-09,Whiteface Reservoir </br> 0.74%
Nov-03-2024 to Nov-09-2024,MN,Boulder Lake Reservoir,3.85,47.06413,-92.1725,1791863,2024-11-03,2024-11-09,Boulder Lake Reservoir </br> 3.85%
Nov-03-2024 to Nov-09-2024,MN,Island Lake Reservoir,0.27,46.99183,-92.2079,1792677,2024-11-03,2024-11-09,Island Lake Reservoir </br> 0.27%
Nov-03-2024 to Nov-09-2024,MN,Fish Lake Reservoir,6.25,46.94337,-92.2742,1792789,2024-11-03,2024-11-09,Fish Lake Reservoir </br> 6.25%
Nov-03-2024 to Nov-09-2024,MN,Grand Lake,0.16,46.87557,-92.404,1792897,2024-11-03,2024-11-09,Grand Lake </br> 0.16%
Nov-03-2024 to Nov-09-2024,MN,Wild Rice Lake Reservoir,1.26,46.89112,-92.1855,1793523,2024-11-03,2024-11-09,Wild Rice Lake Reservoir </br> 1.26%
Nov-03-2024 to Nov-09-2024,WI,Gile Flowage 70,0.4,46.39828,-90.2275,1813525,2024-11-03,2024-11-09,Gile Flowage 70 </br> 0.4%
Nov-03-2024 to Nov-09-2024,WI,Namakagon Lake,1.69,46.22287,-91.1044,1849501,2024-11-03,2024-11-09,Namakagon Lake </br> 1.69%
Nov-03-2024 to Nov-09-2024,WI,Bardon Lake,0.18,46.21378,-91.8722,1849589,2024-11-03,2024-11-09,Bardon Lake </br> 0.18%
Nov-03-2024 to Nov-09-2024,WI,Nelson Lake,4.43,46.09326,-91.4711,1849955,2024-11-03,2024-11-09,Nelson Lake </br> 4.43%
Nov-03-2024 to Nov-09-2024,WI,Middle McKenzie Lake,0.26,45.94333,-92.0409,1855289,2024-11-03,2024-11-09,Middle McKenzie Lake </br> 0.26%
Nov-03-2024 to Nov-09-2024,WI,McKenzie Lake,0.68,45.9184,-92.0386,1855411,2024-11-03,2024-11-09,McKenzie Lake </br> 0.68%
Nov-03-2024 to Nov-09-2024,MN,Sturgeon Lake/North Lake,0.62,44.65671,-92.6728,1873471,2024-11-03,2024-11-09,Sturgeon Lake/North Lake </br> 0.62%
Nov-03-2024 to Nov-09-2024,WI,Lake Pepin,0.26,44.55076,-92.3653,1874843,2024-11-03,2024-11-09,Lake Pepin </br> 0.26%
Nov-03-2024 to Nov-09-2024,CA,Clifton Court Forebay,1.04,37.83848,-121.576,1890272,2024-11-03,2024-11-09,Clifton Court Forebay </br> 1.04%
Nov-03-2024 to Nov-09-2024,NC,Pungo Lake,0.52,35.71407,-76.5507,1966751,2024-11-03,2024-11-09,Pungo Lake </br> 0.52%
Nov-03-2024 to Nov-09-2024,MN,Mazaska Lake,33.03,44.3725,-93.3961,2031719,2024-11-03,2024-11-09,Mazaska Lake </br> 33.03%
Nov-03-2024 to Nov-09-2024,MN,Shields Lake,20.56,44.36981,-93.4414,2031725,2024-11-03,2024-11-09,Shields Lake </br> 20.56%
Nov-03-2024 to Nov-09-2024,MN,Lake Dora,16.93,44.35374,-93.5819,2031749,2024-11-03,2024-11-09,Lake Dora </br> 16.93%
Nov-03-2024 to Nov-09-2024,MN,Gorman Lake,23.65,44.34137,-93.6619,2031773,2024-11-03,2024-11-09,Gorman Lake </br> 23.65%
Nov-03-2024 to Nov-09-2024,MN,French Lake,31.72,44.33881,-93.3917,2031777,2024-11-03,2024-11-09,French Lake </br> 31.72%
Nov-03-2024 to Nov-09-2024,MN,Roberds Lake,25.38,44.32745,-93.3453,2031815,2024-11-03,2024-11-09,Roberds Lake </br> 25.38%
Nov-03-2024 to Nov-09-2024,MN,German Lake,18.77,44.27479,-93.7264,2031943,2024-11-03,2024-11-09,German Lake </br> 18.77%
Nov-03-2024 to Nov-09-2024,MN,Cannon Lake,11.04,44.2661,-93.358,2031955,2024-11-03,2024-11-09,Cannon Lake </br> 11.04%
Nov-03-2024 to Nov-09-2024,MN,Sakatah Lake,26.46,44.22958,-93.5284,2032039,2024-11-03,2024-11-09,Sakatah Lake </br> 26.46%
Nov-03-2024 to Nov-09-2024,MN,Tetonka Lake,26.33,44.23048,-93.6077,2032055,2024-11-03,2024-11-09,Tetonka Lake </br> 26.33%
Nov-03-2024 to Nov-09-2024,MN,Lake Francis,3.11,44.21036,-93.7034,2032117,2024-11-03,2024-11-09,Lake Francis </br> 3.11%
Nov-03-2024 to Nov-09-2024,MN,Clear Lake,14.73,44.08701,-93.4846,2032351,2024-11-03,2024-11-09,Clear Lake </br> 14.73%
Nov-03-2024 to Nov-09-2024,GA,Woodmen Youth Camp Lake,0.74,34.29151,-83.921,2043487,2024-11-03,2024-11-09,Woodmen Youth Camp Lake </br> 0.74%
Nov-03-2024 to Nov-09-2024,GA,Lake Sidney Lanier,0.35,34.17384,-84.0331,2045165,2024-11-03,2024-11-09,Lake Sidney Lanier </br> 0.35%
Nov-03-2024 to Nov-09-2024,FL,Cherry Lake,0.62,30.6149,-83.4148,2066026,2024-11-03,2024-11-09,Cherry Lake </br> 0.62%
Nov-03-2024 to Nov-09-2024,FL,Dead Lakes,1.06,30.18523,-85.1843,2134810,2024-11-03,2024-11-09,Dead Lakes </br> 1.06%
Nov-03-2024 to Nov-09-2024,FL,Santa Fe Lake,1.21,29.74296,-82.0788,2161664,2024-11-03,2024-11-09,Santa Fe Lake </br> 1.21%
Nov-03-2024 to Nov-09-2024,FL,Compass Lake,0.35,30.59624,-85.3844,2176781,2024-11-03,2024-11-09,Compass Lake </br> 0.35%
Nov-03-2024 to Nov-09-2024,FL,Pate Lake,0.64,30.69318,-85.7408,2241295,2024-11-03,2024-11-09,Pate Lake </br> 0.64%
Nov-03-2024 to Nov-09-2024,FL,Big Blue Lake,0.74,30.46804,-85.7437,2243757,2024-11-03,2024-11-09,Big Blue Lake </br> 0.74%
Nov-03-2024 to Nov-09-2024,WI,Upper Eau Claire Lake,0.13,46.3103,-91.4779,2260889,2024-11-03,2024-11-09,Upper Eau Claire Lake </br> 0.13%
Nov-03-2024 to Nov-09-2024,WI,Lower Eau Claire Lake,0.19,46.27303,-91.5512,2260969,2024-11-03,2024-11-09,Lower Eau Claire Lake </br> 0.19%
Nov-03-2024 to Nov-09-2024,WI,Saint Croix Flowage 282,0.11,46.25587,-91.8696,2260997,2024-11-03,2024-11-09,Saint Croix Flowage 282 </br> 0.11%
Nov-03-2024 to Nov-09-2024,WI,Spooner Lake 20,0.19,45.8399,-91.825,2264087,2024-11-03,2024-11-09,Spooner Lake 20 </br> 0.19%
Nov-03-2024 to Nov-09-2024,WI,Shell Lake,1.28,45.73413,-91.8996,2264553,2024-11-03,2024-11-09,Shell Lake </br> 1.28%
Nov-03-2024 to Nov-09-2024,WI,Yellow Lake,5.68,45.92035,-92.4025,2266141,2024-11-03,2024-11-09,Yellow Lake </br> 5.68%
Nov-03-2024 to Nov-09-2024,WI,Sand Lake,0.12,45.91829,-92.1732,2266151,2024-11-03,2024-11-09,Sand Lake </br> 0.12%
Nov-03-2024 to Nov-09-2024,WI,Devils Lake,0.17,45.90937,-92.3379,2266211,2024-11-03,2024-11-09,Devils Lake </br> 0.17%
Nov-03-2024 to Nov-09-2024,WI,Big Sand Lake,0.13,45.8247,-92.2195,2266515,2024-11-03,2024-11-09,Big Sand Lake </br> 0.13%
Nov-03-2024 to Nov-09-2024,WI,Clam Lake,3.35,45.79311,-92.3254,2266571,2024-11-03,2024-11-09,Clam Lake </br> 3.35%
Nov-03-2024 to Nov-09-2024,KS,Tuttle Creek Lake,0.11,39.38517,-96.687,2277833,2024-11-03,2024-11-09,Tuttle Creek Lake </br> 0.11%
Nov-03-2024 to Nov-09-2024,FL,Lake Wimico,0.55,29.80136,-85.1476,2298144,2024-11-03,2024-11-09,Lake Wimico </br> 0.55%
Nov-03-2024 to Nov-09-2024,MO,Montrose Lake,9.91,38.30629,-93.9478,2332715,2024-11-03,2024-11-09,Montrose Lake </br> 9.91%
Nov-03-2024 to Nov-09-2024,MN,Lake Independence,18.33,45.02971,-93.6497,2349188,2024-11-03,2024-11-09,Lake Independence </br> 18.33%
Nov-03-2024 to Nov-09-2024,MN,Mennetaga Lake,13.98,45.08061,-94.8656,2350664,2024-11-03,2024-11-09,Mennetaga Lake </br> 13.98%
Nov-03-2024 to Nov-09-2024,MN,Lake Elizabeth,7.75,45.06438,-94.8018,2350742,2024-11-03,2024-11-09,Lake Elizabeth </br> 7.75%
Nov-03-2024 to Nov-09-2024,MN,King Lake,21.01,45.01491,-94.6442,2350916,2024-11-03,2024-11-09,King Lake </br> 21.01%
Nov-03-2024 to Nov-09-2024,MN,Belle Lake,13.78,44.98163,-94.4269,2354124,2024-11-03,2024-11-09,Belle Lake </br> 13.78%
Nov-03-2024 to Nov-09-2024,MN,Cedar Lake,19.62,44.97503,-94.4637,2354136,2024-11-03,2024-11-09,Cedar Lake </br> 19.62%
Nov-03-2024 to Nov-09-2024,MN,Lake Lillian,8.82,44.96406,-94.8753,2354176,2024-11-03,2024-11-09,Lake Lillian </br> 8.82%
Nov-03-2024 to Nov-09-2024,MN,Preston Lake,16.96,44.78278,-94.5383,2354424,2024-11-03,2024-11-09,Preston Lake </br> 16.96%
Nov-03-2024 to Nov-09-2024,MN,Mille Lacs Lake,0.61,46.24245,-93.6462,2360642,2024-11-03,2024-11-09,Mille Lacs Lake </br> 0.61%
Nov-03-2024 to Nov-09-2024,MN,Round Lake,0.11,46.33448,-93.8053,2360694,2024-11-03,2024-11-09,Round Lake </br> 0.11%
Nov-03-2024 to Nov-09-2024,MN,Borden Lake,0.1,46.30472,-93.8548,2360752,2024-11-03,2024-11-09,Borden Lake </br> 0.1%
Nov-03-2024 to Nov-09-2024,MN,Shakopee Lake,1.1,46.1077,-93.7199,2361124,2024-11-03,2024-11-09,Shakopee Lake </br> 1.1%
Nov-03-2024 to Nov-09-2024,MN,Green Lake,22.26,45.57343,-93.4399,2362366,2024-11-03,2024-11-09,Green Lake </br> 22.26%
Nov-03-2024 to Nov-09-2024,MN,Lake George,0.19,45.3567,-93.3355,2365854,2024-11-03,2024-11-09,Lake George </br> 0.19%
Nov-03-2024 to Nov-09-2024,MN,Lake Waconia,5.44,44.86862,-93.7843,2384576,2024-11-03,2024-11-09,Lake Waconia </br> 5.44%
Nov-03-2024 to Nov-09-2024,MN,Silver Lake,55.44,44.61842,-93.9734,2385692,2024-11-03,2024-11-09,Silver Lake </br> 55.44%
Nov-03-2024 to Nov-09-2024,MN,Cedar Lake,18.77,44.58995,-93.5236,2385742,2024-11-03,2024-11-09,Cedar Lake </br> 18.77%
Nov-03-2024 to Nov-09-2024,MN,High Island Lake,11.7,44.66668,-94.2098,2387652,2024-11-03,2024-11-09,High Island Lake </br> 11.7%
Nov-03-2024 to Nov-09-2024,SD,Grass Lake,38.04,45.07183,-97.3835,2481890,2024-11-03,2024-11-09,Grass Lake </br> 38.04%
Nov-03-2024 to Nov-09-2024,SD,Lake Nicholson,15.97,45.0203,-97.3743,2482648,2024-11-03,2024-11-09,Lake Nicholson </br> 15.97%
Nov-03-2024 to Nov-09-2024,SD,Long Lake,14.72,44.9477,-97.3986,2483484,2024-11-03,2024-11-09,Long Lake </br> 14.72%
Nov-03-2024 to Nov-09-2024,SD,Clear Lake,9.2,44.76685,-97.1761,2484610,2024-11-03,2024-11-09,Clear Lake </br> 9.2%
Nov-03-2024 to Nov-09-2024,SD,Lake Marsh,49.59,44.64681,-97.2443,2485168,2024-11-03,2024-11-09,Lake Marsh </br> 49.59%
Nov-03-2024 to Nov-09-2024,SD,Lake Norden,14.29,44.59546,-97.1985,2485342,2024-11-03,2024-11-09,Lake Norden </br> 14.29%
Nov-03-2024 to Nov-09-2024,SD,Lake Saint John,20.01,44.56533,-97.1878,2485460,2024-11-03,2024-11-09,Lake Saint John </br> 20.01%
Nov-03-2024 to Nov-09-2024,SD,Lake Badger,48.09,44.46198,-97.1767,2486908,2024-11-03,2024-11-09,Lake Badger </br> 48.09%
Nov-03-2024 to Nov-09-2024,MO,Trimble Wildlife Lake,6.31,39.43361,-94.5175,2529647,2024-11-03,2024-11-09,Trimble Wildlife Lake </br> 6.31%
Nov-03-2024 to Nov-09-2024,OR,Gerber Reservoir,4.37,42.19832,-121.103,2551255,2024-11-03,2024-11-09,Gerber Reservoir </br> 4.37%
Nov-03-2024 to Nov-09-2024,OR,Alkali Lake,25.77,42.20581,-121.483,2551259,2024-11-03,2024-11-09,Alkali Lake </br> 25.77%
Nov-03-2024 to Nov-09-2024,CA,Indian Tom Lake,0.36,41.99178,-121.878,2554839,2024-11-03,2024-11-09,Indian Tom Lake </br> 0.36%
Nov-03-2024 to Nov-09-2024,CA,Tule Lake,19.19,41.90581,-121.526,2554943,2024-11-03,2024-11-09,Tule Lake </br> 19.19%
Nov-03-2024 to Nov-09-2024,CA,Clear Lake Reservoir,0.74,41.86582,-121.147,2554957,2024-11-03,2024-11-09,Clear Lake Reservoir </br> 0.74%
Nov-03-2024 to Nov-09-2024,TX,Belton Lake,0.46,31.17064,-97.5083,2571688,2024-11-03,2024-11-09,Belton Lake </br> 0.46%
Nov-03-2024 to Nov-09-2024,NJ,Lake Hopatcong,0.47,40.9439,-74.6422,2585287,2024-11-03,2024-11-09,Lake Hopatcong </br> 0.47%
Nov-03-2024 to Nov-09-2024,NY,Cannonsville Reservoir,0.3,42.09652,-75.303,2613174,2024-11-03,2024-11-09,Cannonsville Reservoir </br> 0.3%
Nov-03-2024 to Nov-09-2024,MN,Sturgeon Lake,0.61,46.37903,-92.7572,2628516,2024-11-03,2024-11-09,Sturgeon Lake </br> 0.61%
Nov-03-2024 to Nov-09-2024,MN,Pokegama Lake,28.16,45.8451,-93.0405,2639444,2024-11-03,2024-11-09,Pokegama Lake </br> 28.16%
Nov-03-2024 to Nov-09-2024,WI,Bona Lake,6.41,45.53489,-92.3894,2644120,2024-11-03,2024-11-09,Bona Lake </br> 6.41%
Nov-03-2024 to Nov-09-2024,WI,Big Round Lake,12.27,45.52444,-92.3014,2644214,2024-11-03,2024-11-09,Big Round Lake </br> 12.27%
Nov-03-2024 to Nov-09-2024,MN,West Rush Lake,26.34,45.68854,-93.0858,2645822,2024-11-03,2024-11-09,West Rush Lake </br> 26.34%
Nov-03-2024 to Nov-09-2024,MN,Rush Lake,24.12,45.68769,-93.0499,2645826,2024-11-03,2024-11-09,Rush Lake </br> 24.12%
Nov-03-2024 to Nov-09-2024,MN,Sunrise Lake,4.66,45.42785,-92.8651,2646558,2024-11-03,2024-11-09,Sunrise Lake </br> 4.66%
Nov-03-2024 to Nov-09-2024,MN,Chisago Lake,10.76,45.3692,-92.8668,2646746,2024-11-03,2024-11-09,Chisago Lake </br> 10.76%
Nov-03-2024 to Nov-09-2024,MN,Green Lake,4.61,45.34337,-92.8994,2646854,2024-11-03,2024-11-09,Green Lake </br> 4.61%
Nov-03-2024 to Nov-09-2024,WI,Wapogasset Lake,11.08,45.32847,-92.4258,2646860,2024-11-03,2024-11-09,Wapogasset Lake </br> 11.08%
Nov-03-2024 to Nov-09-2024,MN,Forest Lake,0.63,45.2736,-92.9489,2647106,2024-11-03,2024-11-09,Forest Lake </br> 0.63%
Nov-03-2024 to Nov-09-2024,MN,Big Marine Lake,0.15,45.21975,-92.8598,2647268,2024-11-03,2024-11-09,Big Marine Lake </br> 0.15%
Nov-03-2024 to Nov-09-2024,WI,Cedar Lake,8.01,45.2143,-92.572,2647328,2024-11-03,2024-11-09,Cedar Lake </br> 8.01%
Nov-03-2024 to Nov-09-2024,MN,Linwood Lake,16.8,45.35152,-93.1077,2650216,2024-11-03,2024-11-09,Linwood Lake </br> 16.8%
Nov-03-2024 to Nov-09-2024,ME,Pocomoonshine Lake,0.13,45.14267,-67.54,2673214,2024-11-03,2024-11-09,Pocomoonshine Lake </br> 0.13%
Nov-03-2024 to Nov-09-2024,ME,Third Machias Lake,0.54,45.11863,-67.89,2673234,2024-11-03,2024-11-09,Third Machias Lake </br> 0.54%
Nov-03-2024 to Nov-09-2024,ME,Meddybemps Lake,0.17,45.07258,-67.3811,2673290,2024-11-03,2024-11-09,Meddybemps Lake </br> 0.17%
Nov-03-2024 to Nov-09-2024,ME,Crawford Lake,0.31,45.05407,-67.5759,2673344,2024-11-03,2024-11-09,Crawford Lake </br> 0.31%
Nov-03-2024 to Nov-09-2024,ME,Fifth Machias Lake,0.18,45.03968,-67.9775,2673400,2024-11-03,2024-11-09,Fifth Machias Lake </br> 0.18%
Nov-03-2024 to Nov-09-2024,ME,Round Lake,0.13,45.01981,-67.2679,2673426,2024-11-03,2024-11-09,Round Lake </br> 0.13%
Nov-03-2024 to Nov-09-2024,ME,Upper Sabao Lake,0.73,45.05077,-68.0805,2674752,2024-11-03,2024-11-09,Upper Sabao Lake </br> 0.73%
Nov-03-2024 to Nov-09-2024,ME,Brandy Pond,0.21,45.03618,-68.2691,2674760,2024-11-03,2024-11-09,Brandy Pond </br> 0.21%
Nov-03-2024 to Nov-09-2024,ME,Lake Cathance,0.09,44.94956,-67.4109,2675496,2024-11-03,2024-11-09,Lake Cathance </br> 0.09%
Nov-03-2024 to Nov-09-2024,ME,Rocky Lake,0.21,44.8639,-67.4579,2675594,2024-11-03,2024-11-09,Rocky Lake </br> 0.21%
Nov-03-2024 to Nov-09-2024,ME,Gardner Lake,0.16,44.78893,-67.3569,2675654,2024-11-03,2024-11-09,Gardner Lake </br> 0.16%
Nov-03-2024 to Nov-09-2024,ME,Hadley Lake,0.16,44.78022,-67.4429,2675732,2024-11-03,2024-11-09,Hadley Lake </br> 0.16%
Nov-03-2024 to Nov-09-2024,ME,Upper Lead Mountain Pond,0.31,44.85209,-68.1393,2678912,2024-11-03,2024-11-09,Upper Lead Mountain Pond </br> 0.31%
Nov-03-2024 to Nov-09-2024,ME,Spectacle Pond,0.25,44.75928,-68.2129,2678970,2024-11-03,2024-11-09,Spectacle Pond </br> 0.25%
Nov-03-2024 to Nov-09-2024,ME,Graham Lake,0.07,44.65687,-68.3978,2678978,2024-11-03,2024-11-09,Graham Lake </br> 0.07%
Nov-03-2024 to Nov-09-2024,ME,Beech Hill Pond,0.11,44.68968,-68.4559,2679020,2024-11-03,2024-11-09,Beech Hill Pond </br> 0.11%
Nov-03-2024 to Nov-09-2024,ME,Molasses Pond,0.11,44.67615,-68.2174,2679030,2024-11-03,2024-11-09,Molasses Pond </br> 0.11%
Nov-03-2024 to Nov-09-2024,ME,Webb Pond,0.08,44.66934,-68.2873,2679044,2024-11-03,2024-11-09,Webb Pond </br> 0.08%
Nov-03-2024 to Nov-09-2024,ME,Branch Lake,0.15,44.59887,-68.5593,2679104,2024-11-03,2024-11-09,Branch Lake </br> 0.15%
Nov-03-2024 to Nov-09-2024,ME,Tunk Lake,0.6,44.58877,-68.0707,2679128,2024-11-03,2024-11-09,Tunk Lake </br> 0.6%
Nov-03-2024 to Nov-09-2024,ME,Green Lake,0.09,44.64313,-68.4891,2680654,2024-11-03,2024-11-09,Green Lake </br> 0.09%
Nov-03-2024 to Nov-09-2024,MN,Sugar Lake,0.13,45.31743,-94.0393,2723763,2024-11-03,2024-11-09,Sugar Lake </br> 0.13%
Nov-03-2024 to Nov-09-2024,MN,Clearwater Lake,0.06,45.30458,-94.1194,2723765,2024-11-03,2024-11-09,Clearwater Lake </br> 0.06%
Nov-03-2024 to Nov-09-2024,MN,Cedar Lake,0.83,45.2693,-94.0646,2723925,2024-11-03,2024-11-09,Cedar Lake </br> 0.83%
Nov-03-2024 to Nov-09-2024,MN,Pleasant Lake,0.15,45.27491,-94.1247,2723927,2024-11-03,2024-11-09,Pleasant Lake </br> 0.15%
Nov-03-2024 to Nov-09-2024,PA,Lake Wallenpaupack,7.89,41.41261,-75.2352,2741600,2024-11-03,2024-11-09,Lake Wallenpaupack </br> 7.89%
Nov-03-2024 to Nov-09-2024,MN,Walnut Lake,16.62,43.67963,-93.8037,2747598,2024-11-03,2024-11-09,Walnut Lake </br> 16.62%
Nov-03-2024 to Nov-09-2024,CA,Lake Almanor,0.41,40.24725,-121.149,2772500,2024-11-03,2024-11-09,Lake Almanor </br> 0.41%
Nov-03-2024 to Nov-09-2024,CA,Butt Valley Reservoir,0.44,40.14258,-121.172,2772516,2024-11-03,2024-11-09,Butt Valley Reservoir </br> 0.44%
Nov-03-2024 to Nov-09-2024,CA,Bucks Lake,0.2,39.88922,-121.185,2775024,2024-11-03,2024-11-09,Bucks Lake </br> 0.2%
Nov-03-2024 to Nov-09-2024,CA,Whiskeytown Lake,0.66,40.62557,-122.559,2781993,2024-11-03,2024-11-09,Whiskeytown Lake </br> 0.66%
Nov-03-2024 to Nov-09-2024,CA,Calaveras Reservoir,13.75,37.47098,-121.816,2809463,2024-11-03,2024-11-09,Calaveras Reservoir </br> 13.75%
Nov-03-2024 to Nov-09-2024,CA,Woodward Reservoir,1.05,37.85238,-120.859,2822246,2024-11-03,2024-11-09,Woodward Reservoir </br> 1.05%
Nov-03-2024 to Nov-09-2024,CA,Turlock Lake,0.95,37.60872,-120.568,2822462,2024-11-03,2024-11-09,Turlock Lake </br> 0.95%
Nov-03-2024 to Nov-09-2024,CO,Union Reservoir,3.77,40.18229,-105.039,2888202,2024-11-03,2024-11-09,Union Reservoir </br> 3.77%
Nov-03-2024 to Nov-09-2024,CO,Boulder Reservoir,0.58,40.0784,-105.222,2888348,2024-11-03,2024-11-09,Boulder Reservoir </br> 0.58%
Nov-03-2024 to Nov-09-2024,CO,Cobb Lake,0.23,40.64184,-104.965,2901253,2024-11-03,2024-11-09,Cobb Lake </br> 0.23%
Nov-03-2024 to Nov-09-2024,CO,Timnath Reservoir,0.65,40.54897,-104.96,2901411,2024-11-03,2024-11-09,Timnath Reservoir </br> 0.65%
Nov-03-2024 to Nov-09-2024,CO,New Windsor Reservoir,0.27,40.5361,-104.888,2901431,2024-11-03,2024-11-09,New Windsor Reservoir </br> 0.27%
Nov-03-2024 to Nov-09-2024,KS,Hillsdale Lake,8.19,38.68225,-94.9235,2992128,2024-11-03,2024-11-09,Hillsdale Lake </br> 8.19%
Nov-03-2024 to Nov-09-2024,KS,La Cygnes Lake,4.03,38.3613,-94.6548,2995458,2024-11-03,2024-11-09,La Cygnes Lake </br> 4.03%
Nov-03-2024 to Nov-09-2024,MT,Upper Holter Lake,0.39,46.82199,-111.945,3022158,2024-11-03,2024-11-09,Upper Holter Lake </br> 0.39%
Nov-03-2024 to Nov-09-2024,MT,Hauser Lake,0.68,46.70183,-111.835,3022162,2024-11-03,2024-11-09,Hauser Lake </br> 0.68%
Nov-03-2024 to Nov-09-2024,MT,Lake Helena,8.42,46.69616,-111.932,3022168,2024-11-03,2024-11-09,Lake Helena </br> 8.42%
Nov-03-2024 to Nov-09-2024,MT,Ennis Lake,0.4,45.43123,-111.682,3053788,2024-11-03,2024-11-09,Ennis Lake </br> 0.4%
Nov-03-2024 to Nov-09-2024,MT,Hebgen Lake,0.21,44.77776,-111.23,3056866,2024-11-03,2024-11-09,Hebgen Lake </br> 0.21%
Nov-03-2024 to Nov-09-2024,MT,Medicine Lake,19.73,48.46327,-104.404,3101661,2024-11-03,2024-11-09,Medicine Lake </br> 19.73%
Nov-03-2024 to Nov-09-2024,TX,Smithers Lake,61.78,29.48958,-95.6482,3123820,2024-11-03,2024-11-09,Smithers Lake </br> 61.78%
Nov-03-2024 to Nov-09-2024,TX,Harris Reservoir,14.83,29.24115,-95.5402,3123960,2024-11-03,2024-11-09,Harris Reservoir </br> 14.83%
Nov-03-2024 to Nov-09-2024,TX,Lake Nocona,12.49,33.86585,-97.656,3133527,2024-11-03,2024-11-09,Lake Nocona </br> 12.49%
Nov-03-2024 to Nov-09-2024,OK,Foss Reservoir,0.87,35.58334,-99.2312,3140356,2024-11-03,2024-11-09,Foss Reservoir </br> 0.87%
Nov-03-2024 to Nov-09-2024,TX,Lake Corpus Christi,1.94,28.13605,-97.9082,3169144,2024-11-03,2024-11-09,Lake Corpus Christi </br> 1.94%
Nov-03-2024 to Nov-09-2024,CO,Vega Reservoir,13.13,39.22357,-107.795,3180118,2024-11-03,2024-11-09,Vega Reservoir </br> 13.13%
Nov-03-2024 to Nov-09-2024,WY,Lake Viva Naughton,8.08,41.98399,-110.664,3192800,2024-11-03,2024-11-09,Lake Viva Naughton </br> 8.08%
Nov-03-2024 to Nov-09-2024,WY,Sweetwater County,0.54,41.60267,-109.802,3194578,2024-11-03,2024-11-09,Sweetwater County </br> 0.54%
Nov-03-2024 to Nov-09-2024,TX,Red Bluff Reservoir,1.23,31.94166,-103.932,3210503,2024-11-03,2024-11-09,Red Bluff Reservoir </br> 1.23%
Nov-03-2024 to Nov-09-2024,TX,Imperial Reservoir,10.3,31.26787,-102.852,3213047,2024-11-03,2024-11-09,Imperial Reservoir </br> 10.3%
Nov-03-2024 to Nov-09-2024,NM,Caballo Reservoir,2.83,32.93823,-107.295,3222367,2024-11-03,2024-11-09,Caballo Reservoir </br> 2.83%
Nov-03-2024 to Nov-09-2024,CO,Blue Mesa Reservoir,0.47,38.46417,-107.202,3252975,2024-11-03,2024-11-09,Blue Mesa Reservoir </br> 0.47%
Nov-03-2024 to Nov-09-2024,ME,Pleasant Pond,0.15,45.25413,-69.9205,3318032,2024-11-03,2024-11-09,Pleasant Pond </br> 0.15%
Nov-03-2024 to Nov-09-2024,ME,Wyman Lake,0.4,45.1042,-69.9399,3318110,2024-11-03,2024-11-09,Wyman Lake </br> 0.4%
Nov-03-2024 to Nov-09-2024,ME,Lake Wassookeag,0.44,45.03004,-69.3088,3318172,2024-11-03,2024-11-09,Lake Wassookeag </br> 0.44%
Nov-03-2024 to Nov-09-2024,ME,Embden Pond,0.28,44.94028,-69.948,3319842,2024-11-03,2024-11-09,Embden Pond </br> 0.28%
Nov-03-2024 to Nov-09-2024,ME,Great Moose Lake,0.25,44.92336,-69.517,3319854,2024-11-03,2024-11-09,Great Moose Lake </br> 0.25%
Nov-03-2024 to Nov-09-2024,ME,Sebasticook Lake,3.14,44.85917,-69.2421,3319884,2024-11-03,2024-11-09,Sebasticook Lake </br> 3.14%
Nov-03-2024 to Nov-09-2024,ME,Wesserunsett Lake,0.37,44.83983,-69.7678,3319916,2024-11-03,2024-11-09,Wesserunsett Lake </br> 0.37%
Nov-03-2024 to Nov-09-2024,ME,Unity Pond,7.99,44.64609,-69.33,3319994,2024-11-03,2024-11-09,Unity Pond </br> 7.99%
Nov-03-2024 to Nov-09-2024,ME,North Pond,2.31,44.62376,-69.8437,3320002,2024-11-03,2024-11-09,North Pond </br> 2.31%
Nov-03-2024 to Nov-09-2024,ME,East Pond,1.01,44.61081,-69.7846,3320004,2024-11-03,2024-11-09,East Pond </br> 1.01%
Nov-03-2024 to Nov-09-2024,ME,McGrath Pond,1.62,44.53953,-69.7755,3320048,2024-11-03,2024-11-09,McGrath Pond </br> 1.62%
Nov-03-2024 to Nov-09-2024,ME,Porter Lake,0.7,44.81041,-70.1516,3322860,2024-11-03,2024-11-09,Porter Lake </br> 0.7%
Nov-03-2024 to Nov-09-2024,ME,China Lake,0.61,44.43776,-69.5592,3323678,2024-11-03,2024-11-09,China Lake </br> 0.61%
Nov-03-2024 to Nov-09-2024,ME,Webber Pond,4.6,44.40986,-69.6546,3323750,2024-11-03,2024-11-09,Webber Pond </br> 4.6%
Nov-03-2024 to Nov-09-2024,ME,Maranacook Lake,0.15,44.34496,-69.9563,3323844,2024-11-03,2024-11-09,Maranacook Lake </br> 0.15%
Nov-03-2024 to Nov-09-2024,ME,Threemile Pond,20.11,44.36661,-69.6053,3323864,2024-11-03,2024-11-09,Threemile Pond </br> 20.11%
Nov-03-2024 to Nov-09-2024,ME,Annabessacook Lake,3.41,44.26812,-69.9803,3323982,2024-11-03,2024-11-09,Annabessacook Lake </br> 3.41%
Nov-03-2024 to Nov-09-2024,ME,Cobbosseecontee Lake,0.85,44.26975,-69.9243,3325032,2024-11-03,2024-11-09,Cobbosseecontee Lake </br> 0.85%
Nov-03-2024 to Nov-09-2024,MI,Gun Lake,0.81,42.60175,-85.5208,3466553,2024-11-03,2024-11-09,Gun Lake </br> 0.81%
Nov-03-2024 to Nov-09-2024,MI,Lake Allegan,0.76,42.55347,-85.9309,3466799,2024-11-03,2024-11-09,Lake Allegan </br> 0.76%
Nov-03-2024 to Nov-09-2024,MI,Duck Lake,1.13,42.38738,-84.7853,3468795,2024-11-03,2024-11-09,Duck Lake </br> 1.13%
Nov-03-2024 to Nov-09-2024,MI,Gull Lake,1.25,42.4016,-85.4123,3471541,2024-11-03,2024-11-09,Gull Lake </br> 1.25%
Nov-03-2024 to Nov-09-2024,MI,Morrow Lake,0.97,42.27749,-85.4658,3471917,2024-11-03,2024-11-09,Morrow Lake </br> 0.97%
Nov-03-2024 to Nov-09-2024,UT,Sevier Bridge Reservoir,2.91,39.38393,-112.017,3501837,2024-11-03,2024-11-09,Sevier Bridge Reservoir </br> 2.91%
Nov-03-2024 to Nov-09-2024,UT,Lake Powell,0.75,37.27534,-110.958,3528295,2024-11-03,2024-11-09,Lake Powell </br> 0.75%
Nov-03-2024 to Nov-09-2024,CO,North Sterling Reservoir,4.2,40.77957,-103.291,3554474,2024-11-03,2024-11-09,North Sterling Reservoir </br> 4.2%
Nov-03-2024 to Nov-09-2024,CO,Julesburg Reservoir,1.87,40.93141,-102.651,3556390,2024-11-03,2024-11-09,Julesburg Reservoir </br> 1.87%
Nov-03-2024 to Nov-09-2024,CO,Prewitt Reservoir,51.18,40.42296,-103.361,3559986,2024-11-03,2024-11-09,Prewitt Reservoir </br> 51.18%
Nov-03-2024 to Nov-09-2024,TX,Canyon Lake,0.5,29.88633,-98.249,3588682,2024-11-03,2024-11-09,Canyon Lake </br> 0.5%
Nov-03-2024 to Nov-09-2024,IL,Meredosia Lake,17.82,39.87346,-90.5515,3594316,2024-11-03,2024-11-09,Meredosia Lake </br> 17.82%
Nov-03-2024 to Nov-09-2024,AR,Wapanocca Lake,64.4,35.34536,-90.234,3673078,2024-11-03,2024-11-09,Wapanocca Lake </br> 64.4%
Nov-03-2024 to Nov-09-2024,AR,Horseshoe Lake,35.55,34.92555,-90.3403,3681830,2024-11-03,2024-11-09,Horseshoe Lake </br> 35.55%
Nov-03-2024 to Nov-09-2024,LA,Lake Charles,0.23,30.21604,-93.2551,3709224,2024-11-03,2024-11-09,Lake Charles </br> 0.23%
Nov-03-2024 to Nov-09-2024,LA,Moss Lake,0.31,30.11811,-93.335,3709440,2024-11-03,2024-11-09,Moss Lake </br> 0.31%
Nov-03-2024 to Nov-09-2024,LA,Willow Lake,1.7,29.97953,-93.1879,3710620,2024-11-03,2024-11-09,Willow Lake </br> 1.7%
Nov-03-2024 to Nov-09-2024,LA,N Sweet Lake,3.09,29.97234,-93.1384,3710644,2024-11-03,2024-11-09,N Sweet Lake </br> 3.09%
Nov-03-2024 to Nov-09-2024,LA,Sweet Lake,0.54,29.94593,-93.1451,3710692,2024-11-03,2024-11-09,Sweet Lake </br> 0.54%
Nov-03-2024 to Nov-09-2024,LA,Mud Lake,86.02,29.80235,-93.4538,3710964,2024-11-03,2024-11-09,Mud Lake </br> 86.02%
Nov-03-2024 to Nov-09-2024,KS,Clinton Lake,0.5,38.91798,-95.3858,3730511,2024-11-03,2024-11-09,Clinton Lake </br> 0.5%
Nov-03-2024 to Nov-09-2024,LA,Cypress Bayou Reservoir,5.92,32.6826,-93.6698,3759766,2024-11-03,2024-11-09,Cypress Bayou Reservoir </br> 5.92%
Nov-03-2024 to Nov-09-2024,TX,Eagle Lake,92.87,29.56776,-96.3434,3762790,2024-11-03,2024-11-09,Eagle Lake </br> 92.87%
Nov-03-2024 to Nov-09-2024,TX,Brazoria Reservoir,0.84,29.06983,-95.5273,3764608,2024-11-03,2024-11-09,Brazoria Reservoir </br> 0.84%
Nov-03-2024 to Nov-09-2024,PA,Youghlogheny River Lake,0.45,39.75258,-79.3851,3806779,2024-11-03,2024-11-09,Youghlogheny River Lake </br> 0.45%
Nov-03-2024 to Nov-09-2024,UT,Scofield Reservoir,4.98,39.7737,-111.152,3906255,2024-11-03,2024-11-09,Scofield Reservoir </br> 4.98%
Nov-03-2024 to Nov-09-2024,CA,Lake Shastina,3.42,41.5206,-122.393,3917046,2024-11-03,2024-11-09,Lake Shastina </br> 3.42%
Nov-03-2024 to Nov-09-2024,CA,Camanche Reservoir,0.5,38.22138,-121.01,3950979,2024-11-03,2024-11-09,Camanche Reservoir </br> 0.5%
Nov-03-2024 to Nov-09-2024,OH,Clarence J Brown Reservoir,27.32,39.96826,-83.7308,3984810,2024-11-03,2024-11-09,Clarence J Brown Reservoir </br> 27.32%
Nov-03-2024 to Nov-09-2024,KY,Green River Lake,0.47,37.24829,-85.2918,3999688,2024-11-03,2024-11-09,Green River Lake </br> 0.47%
Nov-03-2024 to Nov-09-2024,SD,Bullhead Lake,33.85,45.43104,-96.7717,4082352,2024-11-03,2024-11-09,Bullhead Lake </br> 33.85%
Nov-03-2024 to Nov-09-2024,MN,Marsh Lake,14.47,45.19476,-96.1463,4083248,2024-11-03,2024-11-09,Marsh Lake </br> 14.47%
Nov-03-2024 to Nov-09-2024,MN,North Turtle Lake,15.87,46.30507,-95.8015,4098895,2024-11-03,2024-11-09,North Turtle Lake </br> 15.87%
Nov-03-2024 to Nov-09-2024,MN,Stalker Lake,0.28,46.20814,-95.8288,4099203,2024-11-03,2024-11-09,Stalker Lake </br> 0.28%
Nov-03-2024 to Nov-09-2024,MN,Eagle Lake,0.22,46.17086,-95.692,4099427,2024-11-03,2024-11-09,Eagle Lake </br> 0.22%
Nov-03-2024 to Nov-09-2024,MN,Tenmile Lake,0.17,46.12565,-95.9668,4099665,2024-11-03,2024-11-09,Tenmile Lake </br> 0.17%
Nov-03-2024 to Nov-09-2024,MN,Lake Christina,21.51,46.09054,-95.7366,4099849,2024-11-03,2024-11-09,Lake Christina </br> 21.51%
Nov-03-2024 to Nov-09-2024,MN,Melby Lake,16.12,46.05746,-95.8024,4099945,2024-11-03,2024-11-09,Melby Lake </br> 16.12%
Nov-03-2024 to Nov-09-2024,MN,Perkins Lake,8.69,45.7004,-95.8618,4103107,2024-11-03,2024-11-09,Perkins Lake </br> 8.69%
Nov-03-2024 to Nov-09-2024,MN,Artichoke Lake,22.48,45.35486,-96.139,4104123,2024-11-03,2024-11-09,Artichoke Lake </br> 22.48%
Nov-03-2024 to Nov-09-2024,SD,Lake Alice,6.61,44.87791,-96.634,4110960,2024-11-03,2024-11-09,Lake Alice </br> 6.61%
Nov-03-2024 to Nov-09-2024,SD,Fish Lake,22.62,44.60143,-96.4773,4111236,2024-11-03,2024-11-09,Fish Lake </br> 22.62%
Nov-03-2024 to Nov-09-2024,MN,Long Lake,25.02,45.20314,-95.0347,4120278,2024-11-03,2024-11-09,Long Lake </br> 25.02%
Nov-03-2024 to Nov-09-2024,TX,Navarro Mills Lake,59.7,31.9495,-96.7454,4132531,2024-11-03,2024-11-09,Navarro Mills Lake </br> 59.7%
Nov-03-2024 to Nov-09-2024,MN,Dead Coon Lake,12.95,44.36219,-96.0962,4136948,2024-11-03,2024-11-09,Dead Coon Lake </br> 12.95%
Nov-03-2024 to Nov-09-2024,MN,Lake Benton,21.35,44.29177,-96.2407,4136984,2024-11-03,2024-11-09,Lake Benton </br> 21.35%
Nov-03-2024 to Nov-09-2024,MN,Lake Washington,34.82,44.25315,-93.8714,4141150,2024-11-03,2024-11-09,Lake Washington </br> 34.82%
Nov-03-2024 to Nov-09-2024,MN,Loon Lake,27.6,44.09894,-94.1772,4141942,2024-11-03,2024-11-09,Loon Lake </br> 27.6%
Nov-03-2024 to Nov-09-2024,NY,Neversink Reservoir,0.29,41.84256,-74.6554,4146742,2024-11-03,2024-11-09,Neversink Reservoir </br> 0.29%
Nov-03-2024 to Nov-09-2024,MT,Clark Canyon Reservoir,3.39,44.96929,-112.872,4167440,2024-11-03,2024-11-09,Clark Canyon Reservoir </br> 3.39%
Nov-03-2024 to Nov-09-2024,MT,Upper Red Rock Lake,0.25,44.61054,-111.723,4171142,2024-11-03,2024-11-09,Upper Red Rock Lake </br> 0.25%
Nov-03-2024 to Nov-09-2024,MN,Pelican Lake,22.08,45.22734,-93.7594,4250226,2024-11-03,2024-11-09,Pelican Lake </br> 22.08%
Nov-03-2024 to Nov-09-2024,MN,Lake Pulaski,0.89,45.19812,-93.8541,4250322,2024-11-03,2024-11-09,Lake Pulaski </br> 0.89%
Nov-03-2024 to Nov-09-2024,MN,Buffalo Lake,15.34,45.16295,-93.8936,4250428,2024-11-03,2024-11-09,Buffalo Lake </br> 15.34%
Nov-03-2024 to Nov-09-2024,MN,Waverly Lake,4,45.07419,-93.9713,4250568,2024-11-03,2024-11-09,Waverly Lake </br> 4%
Nov-03-2024 to Nov-09-2024,MN,Rice Lake,21.72,45.37442,-94.6213,4251354,2024-11-03,2024-11-09,Rice Lake </br> 21.72%
Nov-03-2024 to Nov-09-2024,MN,Lake Koronis,4.2,45.33563,-94.7093,4251408,2024-11-03,2024-11-09,Lake Koronis </br> 4.2%
Nov-03-2024 to Nov-09-2024,MN,Lake Monongalia,0.09,45.33425,-94.9499,4251422,2024-11-03,2024-11-09,Lake Monongalia </br> 0.09%
Nov-03-2024 to Nov-09-2024,MN,Lake Calhoun,0.38,45.27294,-94.8325,4251580,2024-11-03,2024-11-09,Lake Calhoun </br> 0.38%
Nov-03-2024 to Nov-09-2024,MN,Green Lake,0.17,45.25232,-94.9054,4251588,2024-11-03,2024-11-09,Green Lake </br> 0.17%
Nov-03-2024 to Nov-09-2024,MN,Nest Lake,0.36,45.25987,-94.9673,4251590,2024-11-03,2024-11-09,Nest Lake </br> 0.36%
Nov-03-2024 to Nov-09-2024,MN,Marie Lake,0.06,45.25061,-94.2059,4251618,2024-11-03,2024-11-09,Marie Lake </br> 0.06%
Nov-03-2024 to Nov-09-2024,MN,Lake Francis,0.14,45.22107,-94.2607,4251680,2024-11-03,2024-11-09,Lake Francis </br> 0.14%
Nov-03-2024 to Nov-09-2024,MN,Diamond Lake,15.15,45.18338,-94.8416,4251740,2024-11-03,2024-11-09,Diamond Lake </br> 15.15%
Nov-03-2024 to Nov-09-2024,MN,Lake Ripley,4.18,45.10674,-94.54,4251934,2024-11-03,2024-11-09,Lake Ripley </br> 4.18%
Nov-03-2024 to Nov-09-2024,MN,Lake Washington,1.07,45.06936,-94.3757,4252042,2024-11-03,2024-11-09,Lake Washington </br> 1.07%
Nov-03-2024 to Nov-09-2024,MN,Howard Lake,11.88,45.0722,-94.0692,4252056,2024-11-03,2024-11-09,Howard Lake </br> 11.88%
Nov-03-2024 to Nov-09-2024,MN,Lake Stella,0.27,45.06662,-94.419,4252072,2024-11-03,2024-11-09,Lake Stella </br> 0.27%
Nov-03-2024 to Nov-09-2024,MN,Collinwood Lake,22.51,45.05167,-94.2551,4252106,2024-11-03,2024-11-09,Collinwood Lake </br> 22.51%
Nov-03-2024 to Nov-09-2024,MN,Lake Minnie-Belle,0.34,45.03587,-94.5275,4252134,2024-11-03,2024-11-09,Lake Minnie-Belle </br> 0.34%
Nov-03-2024 to Nov-09-2024,ME,Baker Lake,0.99,46.26733,-69.9115,4290163,2024-11-03,2024-11-09,Baker Lake </br> 0.99%
Nov-03-2024 to Nov-09-2024,ME,Brassua Lake,0.38,45.66824,-69.8754,4290677,2024-11-03,2024-11-09,Brassua Lake </br> 0.38%
Nov-03-2024 to Nov-09-2024,MT,Whitetail Reservoir,1.93,46.07833,-112.273,4312274,2024-11-03,2024-11-09,Whitetail Reservoir </br> 1.93%
Nov-03-2024 to Nov-09-2024,MN,Lake Aaron,5.44,46.07237,-95.5846,4411912,2024-11-03,2024-11-09,Lake Aaron </br> 5.44%
Nov-03-2024 to Nov-09-2024,MN,Lake Moses,1.09,46.06109,-95.5987,4411926,2024-11-03,2024-11-09,Lake Moses </br> 1.09%
Nov-03-2024 to Nov-09-2024,MN,Chippewa Lake,0,45.99079,-95.5432,4412412,2024-11-03,2024-11-09,Chippewa Lake </br> 0%
Nov-03-2024 to Nov-09-2024,MN,Maple Lake,0.23,45.77808,-95.3709,4413176,2024-11-03,2024-11-09,Maple Lake </br> 0.23%
Nov-03-2024 to Nov-09-2024,MN,Lake Reno,2.84,45.7402,-95.4198,4413246,2024-11-03,2024-11-09,Lake Reno </br> 2.84%
Nov-03-2024 to Nov-09-2024,MN,Villard Lake,4.4,45.71165,-95.2922,4413350,2024-11-03,2024-11-09,Villard Lake </br> 4.4%
Nov-03-2024 to Nov-09-2024,MN,Amelia Lake,1.68,45.68685,-95.2904,4413390,2024-11-03,2024-11-09,Amelia Lake </br> 1.68%
Nov-03-2024 to Nov-09-2024,MN,Lake Minnewaska,0.3,45.61765,-95.4508,4413504,2024-11-03,2024-11-09,Lake Minnewaska </br> 0.3%
Nov-03-2024 to Nov-09-2024,MN,Lake Emily,6.35,45.5162,-95.6473,4413720,2024-11-03,2024-11-09,Lake Emily </br> 6.35%
Nov-03-2024 to Nov-09-2024,MN,Lake Johanna,10.49,45.46834,-95.2243,4415134,2024-11-03,2024-11-09,Lake Johanna </br> 10.49%
Nov-03-2024 to Nov-09-2024,MN,Norway Lake,34.05,45.32043,-95.1211,4415506,2024-11-03,2024-11-09,Norway Lake </br> 34.05%
Nov-03-2024 to Nov-09-2024,MN,Andrew Lake,0.63,45.30999,-95.0438,4415554,2024-11-03,2024-11-09,Andrew Lake </br> 0.63%
Nov-03-2024 to Nov-09-2024,MN,Florida Lake,0.99,45.25241,-95.057,4415632,2024-11-03,2024-11-09,Florida Lake </br> 0.99%
Nov-03-2024 to Nov-09-2024,TX,Lake Palestine,21.33,32.18816,-95.4743,4451216,2024-11-03,2024-11-09,Lake Palestine </br> 21.33%
Nov-03-2024 to Nov-09-2024,MO,Long Branch Lake,5.26,39.7965,-92.5156,4460822,2024-11-03,2024-11-09,Long Branch Lake </br> 5.26%
Nov-03-2024 to Nov-09-2024,MO,Thomas Hill Reservoir,0.6,39.60589,-92.6318,4460922,2024-11-03,2024-11-09,Thomas Hill Reservoir </br> 0.6%
Nov-03-2024 to Nov-09-2024,ID,Mud Lake,0.34,42.1332,-111.293,4472023,2024-11-03,2024-11-09,Mud Lake </br> 0.34%
Nov-03-2024 to Nov-09-2024,VT,Caspian Lake,0.45,44.5859,-72.3097,4586134,2024-11-03,2024-11-09,Caspian Lake </br> 0.45%
Nov-03-2024 to Nov-09-2024,VT,Lake Carmi,8.69,44.97217,-72.8751,4589969,2024-11-03,2024-11-09,Lake Carmi </br> 8.69%
Nov-03-2024 to Nov-09-2024,NH,Second Connecticut Lake,0.66,45.15512,-71.1721,4592019,2024-11-03,2024-11-09,Second Connecticut Lake </br> 0.66%
Nov-03-2024 to Nov-09-2024,NH,Connecticut Lakes,0.24,45.09196,-71.2481,4592043,2024-11-03,2024-11-09,Connecticut Lakes </br> 0.24%
Nov-03-2024 to Nov-09-2024,NH,Lake Francis,0.44,45.04275,-71.3301,4592065,2024-11-03,2024-11-09,Lake Francis </br> 0.44%
Nov-03-2024 to Nov-09-2024,VT,Maidstone Lake,0.58,44.6479,-71.6494,4592671,2024-11-03,2024-11-09,Maidstone Lake </br> 0.58%
Nov-03-2024 to Nov-09-2024,NH,Moore Reservoir,0.22,44.35825,-71.8248,4594507,2024-11-03,2024-11-09,Moore Reservoir </br> 0.22%
Nov-03-2024 to Nov-09-2024,VT,Great Averill Pond,0.37,44.98442,-71.7031,4599077,2024-11-03,2024-11-09,Great Averill Pond </br> 0.37%
Nov-03-2024 to Nov-09-2024,VT,Lake Salem,0.13,44.93036,-72.1058,4599579,2024-11-03,2024-11-09,Lake Salem </br> 0.13%
Nov-03-2024 to Nov-09-2024,VT,Lake Willoughby,0.38,44.7502,-72.0566,4599629,2024-11-03,2024-11-09,Lake Willoughby </br> 0.38%
Nov-03-2024 to Nov-09-2024,MN,Roosevelt Lake,0.22,46.80522,-93.9649,4616338,2024-11-03,2024-11-09,Roosevelt Lake </br> 0.22%
Nov-03-2024 to Nov-09-2024,MN,Emily Lake,19.52,46.72526,-93.9459,4616696,2024-11-03,2024-11-09,Emily Lake </br> 19.52%
Nov-03-2024 to Nov-09-2024,MN,Pine Mountain Lake,1.09,46.82371,-94.5331,4619272,2024-11-03,2024-11-09,Pine Mountain Lake </br> 1.09%
Nov-03-2024 to Nov-09-2024,MN,Lake Ada,0.09,46.82975,-94.3492,4619296,2024-11-03,2024-11-09,Lake Ada </br> 0.09%
Nov-03-2024 to Nov-09-2024,MN,Pine River Reservoir,0.1,46.68946,-94.1948,4620258,2024-11-03,2024-11-09,Pine River Reservoir </br> 0.1%
Nov-03-2024 to Nov-09-2024,MN,Upper Hay Lake,1.29,46.64267,-94.3026,4620672,2024-11-03,2024-11-09,Upper Hay Lake </br> 1.29%
Nov-03-2024 to Nov-09-2024,MN,Pelican Lake,0.09,46.57607,-94.1756,4620890,2024-11-03,2024-11-09,Pelican Lake </br> 0.09%
Nov-03-2024 to Nov-09-2024,MN,Horseshoe Lake,0.24,46.58251,-94.1142,4621002,2024-11-03,2024-11-09,Horseshoe Lake </br> 0.24%
Nov-03-2024 to Nov-09-2024,PA,Raystown Lake,0.37,40.36437,-78.1025,4690013,2024-11-03,2024-11-09,Raystown Lake </br> 0.37%
Nov-03-2024 to Nov-09-2024,PA,Lake Aldred,0.63,39.77439,-76.2747,4726045,2024-11-03,2024-11-09,Lake Aldred </br> 0.63%
Nov-03-2024 to Nov-09-2024,MN,Pine Lake,0.18,48.06246,-90.1642,4792982,2024-11-03,2024-11-09,Pine Lake </br> 0.18%
Nov-03-2024 to Nov-09-2024,MN,Brule Lake,0.27,47.94058,-90.6824,4795750,2024-11-03,2024-11-09,Brule Lake </br> 0.27%
Nov-03-2024 to Nov-09-2024,MN,Devils Track Lake,0.36,47.82353,-90.4239,4796552,2024-11-03,2024-11-09,Devils Track Lake </br> 0.36%
Nov-03-2024 to Nov-09-2024,MN,Big Sand Lake,0.3,47.0634,-93.9703,4816421,2024-11-03,2024-11-09,Big Sand Lake </br> 0.3%
Nov-03-2024 to Nov-09-2024,MN,Portage Lake,2.28,47.34286,-94.3089,4817559,2024-11-03,2024-11-09,Portage Lake </br> 2.28%
Nov-03-2024 to Nov-09-2024,MN,Sucker Lakes,7.03,47.32918,-94.4257,4817601,2024-11-03,2024-11-09,Sucker Lakes </br> 7.03%
Nov-03-2024 to Nov-09-2024,MN,Sixmile Lake,0.7,47.31145,-94.1421,4817643,2024-11-03,2024-11-09,Sixmile Lake </br> 0.7%
Nov-03-2024 to Nov-09-2024,MN,Leech Lake,0.53,47.16226,-94.4053,4817675,2024-11-03,2024-11-09,Leech Lake </br> 0.53%
Nov-03-2024 to Nov-09-2024,MN,Lake Thirteen,0.07,47.29125,-94.5494,4817711,2024-11-03,2024-11-09,Lake Thirteen </br> 0.07%
Nov-03-2024 to Nov-09-2024,MN,Steamboat Lake,0.15,47.26459,-94.6589,4817769,2024-11-03,2024-11-09,Steamboat Lake </br> 0.15%
Nov-03-2024 to Nov-09-2024,MN,Crooked Lake,0.11,47.24292,-94.5678,4817819,2024-11-03,2024-11-09,Crooked Lake </br> 0.11%
Nov-03-2024 to Nov-09-2024,MN,Garfield Lake,0.52,47.22677,-94.7479,4817823,2024-11-03,2024-11-09,Garfield Lake </br> 0.52%
Nov-03-2024 to Nov-09-2024,MN,Swamp Lake,0.3,47.21398,-94.644,4817841,2024-11-03,2024-11-09,Swamp Lake </br> 0.3%
Nov-03-2024 to Nov-09-2024,MN,Kabekona Lake,0.11,47.16353,-94.7591,4817931,2024-11-03,2024-11-09,Kabekona Lake </br> 0.11%
Nov-03-2024 to Nov-09-2024,MN,Oak Lake,0.09,47.14042,-94.6574,4819397,2024-11-03,2024-11-09,Oak Lake </br> 0.09%
Nov-03-2024 to Nov-09-2024,MN,Girl Lake,0.23,46.9535,-94.2768,4821587,2024-11-03,2024-11-09,Girl Lake </br> 0.23%
Nov-03-2024 to Nov-09-2024,MN,Inguadona Lake/Rice Lake,0.09,46.96325,-94.1403,4821725,2024-11-03,2024-11-09,Inguadona Lake/Rice Lake </br> 0.09%
Nov-03-2024 to Nov-09-2024,MN,Webb Lake,0.12,46.9564,-94.414,4821741,2024-11-03,2024-11-09,Webb Lake </br> 0.12%
Nov-03-2024 to Nov-09-2024,MN,Little Boy Lake,0.06,46.94303,-94.19,4821857,2024-11-03,2024-11-09,Little Boy Lake </br> 0.06%
Nov-03-2024 to Nov-09-2024,MN,Birch Lake,0.13,46.93869,-94.5454,4821881,2024-11-03,2024-11-09,Birch Lake </br> 0.13%
Nov-03-2024 to Nov-09-2024,MN,Boss Lake,0.08,46.91649,-94.4731,4821997,2024-11-03,2024-11-09,Boss Lake </br> 0.08%
Nov-03-2024 to Nov-09-2024,MN,Wabedo Lake,0.08,46.90828,-94.2154,4822083,2024-11-03,2024-11-09,Wabedo Lake </br> 0.08%
Nov-03-2024 to Nov-09-2024,MN,Black Water Lake,0.16,46.90866,-94.3049,4822095,2024-11-03,2024-11-09,Black Water Lake </br> 0.16%
Nov-03-2024 to Nov-09-2024,MN,Round Lake,1.15,47.60069,-93.3608,4831058,2024-11-03,2024-11-09,Round Lake </br> 1.15%
Nov-03-2024 to Nov-09-2024,MN,Buck Lake,1.22,47.53787,-93.188,4831412,2024-11-03,2024-11-09,Buck Lake </br> 1.22%
Nov-03-2024 to Nov-09-2024,MN,Trout Lake,0.14,47.46094,-93.5529,4833160,2024-11-03,2024-11-09,Trout Lake </br> 0.14%
Nov-03-2024 to Nov-09-2024,MN,Wabana Lake,0.16,47.42229,-93.5227,4833388,2024-11-03,2024-11-09,Wabana Lake </br> 0.16%
Nov-03-2024 to Nov-09-2024,MN,Swan Lake,0.54,47.30015,-93.1839,4834066,2024-11-03,2024-11-09,Swan Lake </br> 0.54%
Nov-03-2024 to Nov-09-2024,MN,Shoal Lake,19.82,47.3024,-93.5725,4834134,2024-11-03,2024-11-09,Shoal Lake </br> 19.82%
Nov-03-2024 to Nov-09-2024,MN,Trout Lake,0.16,47.25978,-93.4049,4834232,2024-11-03,2024-11-09,Trout Lake </br> 0.16%
Nov-03-2024 to Nov-09-2024,MN,Split Hand Lake,11.47,47.06038,-93.4854,4835034,2024-11-03,2024-11-09,Split Hand Lake </br> 11.47%
Nov-03-2024 to Nov-09-2024,MN,Prairie Lake,2.67,46.79132,-92.9048,4838796,2024-11-03,2024-11-09,Prairie Lake </br> 2.67%
Nov-03-2024 to Nov-09-2024,MN,Thunder Lake,0.28,46.95265,-93.9741,4839500,2024-11-03,2024-11-09,Thunder Lake </br> 0.28%
Nov-03-2024 to Nov-09-2024,MN,Lake Minnewawa,1.27,46.70873,-93.2639,4840066,2024-11-03,2024-11-09,Lake Minnewawa </br> 1.27%
Nov-03-2024 to Nov-09-2024,MN,Round Lake,0.19,46.69644,-93.1925,4840114,2024-11-03,2024-11-09,Round Lake </br> 0.19%
Nov-03-2024 to Nov-09-2024,MN,Esquagamah Lake,14.25,46.7394,-93.6932,4851955,2024-11-03,2024-11-09,Esquagamah Lake </br> 14.25%
Nov-03-2024 to Nov-09-2024,MN,Waukenabo Lake,6.92,46.73531,-93.6216,4851965,2024-11-03,2024-11-09,Waukenabo Lake </br> 6.92%
Nov-03-2024 to Nov-09-2024,MN,Round Lake,1.06,46.72638,-93.6526,4851981,2024-11-03,2024-11-09,Round Lake </br> 1.06%
Nov-03-2024 to Nov-09-2024,MN,Upper Mission Lake,1.39,46.55453,-94.0735,4854979,2024-11-03,2024-11-09,Upper Mission Lake </br> 1.39%
Nov-03-2024 to Nov-09-2024,MN,Serpent Lake,0.21,46.48039,-93.9245,4855685,2024-11-03,2024-11-09,Serpent Lake </br> 0.21%
Nov-03-2024 to Nov-09-2024,MN,Ripple Lake,5.84,46.46615,-93.6831,4855703,2024-11-03,2024-11-09,Ripple Lake </br> 5.84%
Nov-03-2024 to Nov-09-2024,MN,Farm Island Lake,1.24,46.42207,-93.7721,4855949,2024-11-03,2024-11-09,Farm Island Lake </br> 1.24%
Nov-03-2024 to Nov-09-2024,MN,Nokay Lake,2.24,46.37863,-93.9637,4856147,2024-11-03,2024-11-09,Nokay Lake </br> 2.24%
Nov-03-2024 to Nov-09-2024,MN,Bass Lake,0.09,46.4907,-94.1403,4857069,2024-11-03,2024-11-09,Bass Lake </br> 0.09%
Nov-03-2024 to Nov-09-2024,MN,Upper South Long Lake,1.27,46.31034,-94.0376,4857623,2024-11-03,2024-11-09,Upper South Long Lake </br> 1.27%
Nov-03-2024 to Nov-09-2024,MN,South Long Lake,4.37,46.28056,-94.0856,4857683,2024-11-03,2024-11-09,South Long Lake </br> 4.37%
Nov-03-2024 to Nov-09-2024,MN,Big Swan Lake,6.37,45.88436,-94.7517,4859143,2024-11-03,2024-11-09,Big Swan Lake </br> 6.37%
Nov-03-2024 to Nov-09-2024,UT,Joes Valley Reservoir,0.5,39.29327,-111.28,4876219,2024-11-03,2024-11-09,Joes Valley Reservoir </br> 0.5%
Nov-03-2024 to Nov-09-2024,UT,Johnson Valley Reservoir,1.73,38.60957,-111.645,4899751,2024-11-03,2024-11-09,Johnson Valley Reservoir </br> 1.73%
Nov-03-2024 to Nov-09-2024,UT,Fish Lake,0.16,38.54808,-111.71,4899761,2024-11-03,2024-11-09,Fish Lake </br> 0.16%
Nov-03-2024 to Nov-09-2024,MN,Mantrap Lake,0.15,47.07077,-94.9127,4936611,2024-11-03,2024-11-09,Mantrap Lake </br> 0.15%
Nov-03-2024 to Nov-09-2024,MN,Lake Belle Taine,0.36,46.94354,-94.887200000000007,4940835,2024-11-03,2024-11-09,Lake Belle Taine </br> 0.36%
Nov-03-2024 to Nov-09-2024,MN,Lower Cullen Lake,0.08,46.5448,-94.2787,4942039,2024-11-03,2024-11-09,Lower Cullen Lake </br> 0.08%
Nov-03-2024 to Nov-09-2024,MN,Shell Lake,0.39,46.94617,-95.4467,4943483,2024-11-03,2024-11-09,Shell Lake </br> 0.39%
Nov-03-2024 to Nov-09-2024,MN,Mud Lake,0.17,46.95509,-95.0632,4945805,2024-11-03,2024-11-09,Mud Lake </br> 0.17%
Nov-03-2024 to Nov-09-2024,MN,Lake Hubert,0.03,46.48652,-94.267,4946183,2024-11-03,2024-11-09,Lake Hubert </br> 0.03%
Nov-03-2024 to Nov-09-2024,MN,Round Lake,0.03,46.45769,-94.2829,4946249,2024-11-03,2024-11-09,Round Lake </br> 0.03%
Nov-03-2024 to Nov-09-2024,MN,North Long Lake,0.05,46.43832,-94.2417,4946253,2024-11-03,2024-11-09,North Long Lake </br> 0.05%
Nov-03-2024 to Nov-09-2024,MN,Rice Portage Lake,0.09,46.85453,-94.4237,4955292,2024-11-03,2024-11-09,Rice Portage Lake </br> 0.09%
Nov-03-2024 to Nov-09-2024,MN,Wolf Lake,0.77,46.82418,-95.3857,4956852,2024-11-03,2024-11-09,Wolf Lake </br> 0.77%
Nov-03-2024 to Nov-09-2024,MN,Shamineau Lake,0.15,46.25443,-94.6047,4963129,2024-11-03,2024-11-09,Shamineau Lake </br> 0.15%
Nov-03-2024 to Nov-09-2024,MN,Lake Alexander,0.26,46.20752,-94.5415,4963177,2024-11-03,2024-11-09,Lake Alexander </br> 0.26%
Nov-03-2024 to Nov-09-2024,MN,Fish Trap Lake,1.43,46.21198,-94.6177,4963181,2024-11-03,2024-11-09,Fish Trap Lake </br> 1.43%
Nov-03-2024 to Nov-09-2024,MN,Lake Irene,0.65,46.06113,-95.3074,4964681,2024-11-03,2024-11-09,Lake Irene </br> 0.65%
Nov-03-2024 to Nov-09-2024,MN,Lake Miltona,0.19,46.04088,-95.369,4964689,2024-11-03,2024-11-09,Lake Miltona </br> 0.19%
Nov-03-2024 to Nov-09-2024,MN,Lake Carlos,0.04,45.96522,-95.359,4966535,2024-11-03,2024-11-09,Lake Carlos </br> 0.04%
Nov-03-2024 to Nov-09-2024,MN,Lake Le Homme Dieu,0.06,45.92846,-95.3487,4966599,2024-11-03,2024-11-09,Lake Le Homme Dieu </br> 0.06%
Nov-03-2024 to Nov-09-2024,MN,Lake Darling,0.02,45.91935,-95.3968,4966619,2024-11-03,2024-11-09,Lake Darling </br> 0.02%
Nov-03-2024 to Nov-09-2024,MN,Lake Mary,0.07,45.82654,-95.4783,4966777,2024-11-03,2024-11-09,Lake Mary </br> 0.07%
Nov-03-2024 to Nov-09-2024,MN,Lake Andrew,0.04,45.82077,-95.4222,4966827,2024-11-03,2024-11-09,Lake Andrew </br> 0.04%
Nov-03-2024 to Nov-09-2024,MN,Sullivan Lake,0.27,46.15291,-93.9306,4970199,2024-11-03,2024-11-09,Sullivan Lake </br> 0.27%
Nov-03-2024 to Nov-09-2024,MN,Little Rock Lake,38.93,45.73166,-94.1688,4971777,2024-11-03,2024-11-09,Little Rock Lake </br> 38.93%
Nov-03-2024 to Nov-09-2024,MN,Sauk Lake,8,45.784910000000004,-94.9361,4978558,2024-11-03,2024-11-09,Sauk Lake </br> 8%
Nov-03-2024 to Nov-09-2024,MN,Big Birch Lake,0.18,45.77879,-94.7497,4978640,2024-11-03,2024-11-09,Big Birch Lake </br> 0.18%
Nov-03-2024 to Nov-09-2024,MN,Lake Osakis,6.72,45.90299,-95.1172,4980330,2024-11-03,2024-11-09,Lake Osakis </br> 6.72%
Nov-03-2024 to Nov-09-2024,MN,Grand Lake,3.52,45.43684,-94.3369,4981198,2024-11-03,2024-11-09,Grand Lake </br> 3.52%
Nov-03-2024 to Nov-09-2024,MN,Pearl Lake,10.1,45.399,-94.3063,4981268,2024-11-03,2024-11-09,Pearl Lake </br> 10.1%
Nov-03-2024 to Nov-09-2024,ME,Grand Lake,0.14,45.71273,-67.7984,5194604,2024-11-03,2024-11-09,Grand Lake </br> 0.14%
Nov-03-2024 to Nov-09-2024,ME,Brackett Lake,0.39,45.74557,-67.8607,5194620,2024-11-03,2024-11-09,Brackett Lake </br> 0.39%
Nov-03-2024 to Nov-09-2024,ME,Spednic Lake,0.21,45.60715,-67.5866,5194634,2024-11-03,2024-11-09,Spednic Lake </br> 0.21%
Nov-03-2024 to Nov-09-2024,ME,East Musquash Lake,0.18,45.40914,-67.8006,5195104,2024-11-03,2024-11-09,East Musquash Lake </br> 0.18%
Nov-03-2024 to Nov-09-2024,ME,Pleasant Lake,0.09,45.35434,-67.9192,5195160,2024-11-03,2024-11-09,Pleasant Lake </br> 0.09%
Nov-03-2024 to Nov-09-2024,ME,West Musquash Lake,0.19,45.33495,-67.8322,5195184,2024-11-03,2024-11-09,West Musquash Lake </br> 0.19%
Nov-03-2024 to Nov-09-2024,ME,Big Lake,0.31,45.25976,-67.537,5195222,2024-11-03,2024-11-09,Big Lake </br> 0.31%
Nov-03-2024 to Nov-09-2024,ME,Lewy Lake,0.15,45.17621,-67.6745,5195294,2024-11-03,2024-11-09,Lewy Lake </br> 0.15%
Nov-03-2024 to Nov-09-2024,ME,Wabassus Lake,0.31,45.15288,-67.8832,5195346,2024-11-03,2024-11-09,Wabassus Lake </br> 0.31%
Nov-03-2024 to Nov-09-2024,ME,Upper Sysladobsis Lake,0.18,45.3018,-68.1259,5197464,2024-11-03,2024-11-09,Upper Sysladobsis Lake </br> 0.18%
Nov-03-2024 to Nov-09-2024,ME,Alford Lake,0.82,44.23736,-69.2158,5202150,2024-11-03,2024-11-09,Alford Lake </br> 0.82%
Nov-03-2024 to Nov-09-2024,ME,Damariscotta lake,0.17,44.14691,-69.4864,5202226,2024-11-03,2024-11-09,Damariscotta lake </br> 0.17%
Nov-03-2024 to Nov-09-2024,ME,Pemaquid Pond,0.5,44.05099,-69.4521,5202348,2024-11-03,2024-11-09,Pemaquid Pond </br> 0.5%
Nov-03-2024 to Nov-09-2024,ME,Sheepscot Pond,0.58,44.3617,-69.4304,5203442,2024-11-03,2024-11-09,Sheepscot Pond </br> 0.58%
Nov-03-2024 to Nov-09-2024,OH,Williams Lake,0.17,40.22616,-82.9658,5212313,2024-11-03,2024-11-09,Williams Lake </br> 0.17%
Nov-03-2024 to Nov-09-2024,OH,Hoover Reservoir,10.68,40.16639,-82.8791,5212351,2024-11-03,2024-11-09,Hoover Reservoir </br> 10.68%
Nov-03-2024 to Nov-09-2024,OH,Rocky Fork Lake,0.91,39.18619,-83.4833,5231452,2024-11-03,2024-11-09,Rocky Fork Lake </br> 0.91%
Nov-03-2024 to Nov-09-2024,CO,Elevenmile Canyon Reservoir,1.21,38.93011,-105.519,5241028,2024-11-03,2024-11-09,Elevenmile Canyon Reservoir </br> 1.21%
Nov-03-2024 to Nov-09-2024,TX,Lake Cherokee,0.21,32.35682,-94.6626,5278062,2024-11-03,2024-11-09,Lake Cherokee </br> 0.21%
Nov-03-2024 to Nov-09-2024,TX,Martin Lake,2.49,32.23937,-94.576,5278224,2024-11-03,2024-11-09,Martin Lake </br> 2.49%
Nov-03-2024 to Nov-09-2024,TX,Lake Murvaul,11.36,32.03817,-94.4609,5278562,2024-11-03,2024-11-09,Lake Murvaul </br> 11.36%
Nov-03-2024 to Nov-09-2024,TX,Willow Lake,4.63,28.42547,-97.2739,5289007,2024-11-03,2024-11-09,Willow Lake </br> 4.63%
Nov-03-2024 to Nov-09-2024,TX,Monticello Reservoir,0.12,33.06119,-95.0557,5292281,2024-11-03,2024-11-09,Monticello Reservoir </br> 0.12%
Nov-03-2024 to Nov-09-2024,TX,Case Lake,1.04,32.87821,-95.598,5292739,2024-11-03,2024-11-09,Case Lake </br> 1.04%
Nov-03-2024 to Nov-09-2024,SD,Belle Fourche Reservoir,0.28,44.7342,-103.705,5451158,2024-11-03,2024-11-09,Belle Fourche Reservoir </br> 0.28%
Nov-03-2024 to Nov-09-2024,TX,Fort Phantom Hill Lake,17.36,32.58679,-99.6865,5489185,2024-11-03,2024-11-09,Fort Phantom Hill Lake </br> 17.36%
Nov-03-2024 to Nov-09-2024,TX,Lake Graham,0.76,33.15776,-98.6312,5494328,2024-11-03,2024-11-09,Lake Graham </br> 0.76%
Nov-03-2024 to Nov-09-2024,TX,Palo Pinto Creek Reservoir,4.84,32.63983,-98.3073,5495308,2024-11-03,2024-11-09,Palo Pinto Creek Reservoir </br> 4.84%
Nov-03-2024 to Nov-09-2024,TX,Safe Shutdown Impoundment,1.96,32.30943,-97.78,5511582,2024-11-03,2024-11-09,Safe Shutdown Impoundment </br> 1.96%
Nov-03-2024 to Nov-09-2024,TX,Lake Pat Cleburne,28.5,32.30207,-97.4314,5511586,2024-11-03,2024-11-09,Lake Pat Cleburne </br> 28.5%
Nov-03-2024 to Nov-09-2024,TX,Tradinghouse Creek Reservoir,13.54,31.5641,-96.9607,5513974,2024-11-03,2024-11-09,Tradinghouse Creek Reservoir </br> 13.54%
Nov-03-2024 to Nov-09-2024,TX,E Hubbard Creek Reservoir,0.15,32.80802,-98.979,5525777,2024-11-03,2024-11-09,E Hubbard Creek Reservoir </br> 0.15%
Nov-03-2024 to Nov-09-2024,TX,Waco Lake,20.92,31.56888,-97.2339,5531262,2024-11-03,2024-11-09,Waco Lake </br> 20.92%
Nov-03-2024 to Nov-09-2024,TX,Somerville Lake,15.68,30.31096,-96.587,5569731,2024-11-03,2024-11-09,Somerville Lake </br> 15.68%
Nov-03-2024 to Nov-09-2024,TX,Lake Limestone,5.81,31.40082,-96.3455,5575089,2024-11-03,2024-11-09,Lake Limestone </br> 5.81%
Nov-03-2024 to Nov-09-2024,TX,Lake J B Thomas,0.33,32.58362,-101.16,5632093,2024-11-03,2024-11-09,Lake J B Thomas </br> 0.33%
Nov-03-2024 to Nov-09-2024,TX,Granger Lake,18.32,30.69712,-97.3596,5670421,2024-11-03,2024-11-09,Granger Lake </br> 18.32%
Nov-03-2024 to Nov-09-2024,TX,Twin Buttes Reservoir,3.01,31.35291,-100.545,5702167,2024-11-03,2024-11-09,Twin Buttes Reservoir </br> 3.01%
Nov-03-2024 to Nov-09-2024,TX,E V Spence Reservoir,1.69,31.93491,-100.579,5722027,2024-11-03,2024-11-09,E V Spence Reservoir </br> 1.69%
Nov-03-2024 to Nov-09-2024,TX,Brownwood Lake,0.67,31.84974,-99.0417,5734861,2024-11-03,2024-11-09,Brownwood Lake </br> 0.67%
Nov-03-2024 to Nov-09-2024,TX,Brady Reservoir,49.42,31.13857,-99.4122,5753298,2024-11-03,2024-11-09,Brady Reservoir </br> 49.42%
Nov-03-2024 to Nov-09-2024,TX,Buchanan Lake,0.55,30.81578,-98.4226,5756886,2024-11-03,2024-11-09,Buchanan Lake </br> 0.55%
Nov-03-2024 to Nov-09-2024,TX,Lake Lyndon B Johnson,1.13,30.57987,-98.3873,5756952,2024-11-03,2024-11-09,Lake Lyndon B Johnson </br> 1.13%
Nov-03-2024 to Nov-09-2024,TX,Cedar Creek Reservoir,19.97,29.93032,-96.734,5791260,2024-11-03,2024-11-09,Cedar Creek Reservoir </br> 19.97%
Nov-03-2024 to Nov-09-2024,NH,Bow Lake,0.28,43.24804,-71.1809,5846926,2024-11-03,2024-11-09,Bow Lake </br> 0.28%
Nov-03-2024 to Nov-09-2024,MA,Snipatuit Pond,0.19,41.77404,-70.8625,5877705,2024-11-03,2024-11-09,Snipatuit Pond </br> 0.19%
Nov-03-2024 to Nov-09-2024,MA,Mashpee & Wakeby Ponds,0.29,41.66746,-70.486,5878245,2024-11-03,2024-11-09,Mashpee & Wakeby Ponds </br> 0.29%
Nov-03-2024 to Nov-09-2024,MA,North Watuppa Lake,0.51,41.70722,-71.1059,5880789,2024-11-03,2024-11-09,North Watuppa Lake </br> 0.51%
Nov-03-2024 to Nov-09-2024,MA,Copicut Reservoir,1.26,41.70877,-71.0361,5880839,2024-11-03,2024-11-09,Copicut Reservoir </br> 1.26%
Nov-03-2024 to Nov-09-2024,MA,South Watuppa Pond,48.49,41.66438,-71.1264,5880937,2024-11-03,2024-11-09,South Watuppa Pond </br> 48.49%
Nov-03-2024 to Nov-09-2024,MA,Squibnocket Pond,0.43,41.31726,-70.7861,5882095,2024-11-03,2024-11-09,Squibnocket Pond </br> 0.43%
Nov-03-2024 to Nov-09-2024,KS,Webster Reservoir,18.62,39.39323,-99.4549,5943595,2024-11-03,2024-11-09,Webster Reservoir </br> 18.62%
Nov-03-2024 to Nov-09-2024,MO,Silver Lake Pool,1.48,39.6138,-93.1748,5967404,2024-11-03,2024-11-09,Silver Lake Pool </br> 1.48%
Nov-03-2024 to Nov-09-2024,OK,Lake Konawa,1.32,34.96402,-96.7134,6027864,2024-11-03,2024-11-09,Lake Konawa </br> 1.32%
Nov-03-2024 to Nov-09-2024,OK,Wister Lake,2.5,34.93087,-94.7591,6043008,2024-11-03,2024-11-09,Wister Lake </br> 2.5%
Nov-03-2024 to Nov-09-2024,MA,Assawompset Pond,0.11,41.83663,-70.9148,6126157,2024-11-03,2024-11-09,Assawompset Pond </br> 0.11%
Nov-03-2024 to Nov-09-2024,MA,Long Pond,0.11,41.80145,-70.9446,6126185,2024-11-03,2024-11-09,Long Pond </br> 0.11%
Nov-03-2024 to Nov-09-2024,MA,Great Quittacas Pond,0.22,41.80042,-70.8974,6126199,2024-11-03,2024-11-09,Great Quittacas Pond </br> 0.22%
Nov-03-2024 to Nov-09-2024,RI,Scituate Reservoir,0.44,41.80816,-71.5957,6127173,2024-11-03,2024-11-09,Scituate Reservoir </br> 0.44%
Nov-03-2024 to Nov-09-2024,RI,Scituate Reservoir,0.29,41.77251,-71.611,6127281,2024-11-03,2024-11-09,Scituate Reservoir </br> 0.29%
Nov-03-2024 to Nov-09-2024,RI,Worden Pond,0.39,41.43915,-71.5749,6140554,2024-11-03,2024-11-09,Worden Pond </br> 0.39%
Nov-03-2024 to Nov-09-2024,RI,Watchaug Pond,0.2,41.38404,-71.6911,6140612,2024-11-03,2024-11-09,Watchaug Pond </br> 0.2%
Nov-03-2024 to Nov-09-2024,RI,Ninigret Pond,0.12,41.3612,-71.654,6140634,2024-11-03,2024-11-09,Ninigret Pond </br> 0.12%
Nov-03-2024 to Nov-09-2024,MA,Webster Lake,0.44,42.04088,-71.8446,6144103,2024-11-03,2024-11-09,Webster Lake </br> 0.44%
Nov-03-2024 to Nov-09-2024,CT,Lake Gaillard,0.53,41.34944,-72.7758,6176462,2024-11-03,2024-11-09,Lake Gaillard </br> 0.53%
Nov-03-2024 to Nov-09-2024,NY,Ashokan Reservoir,0.59,41.97614,-74.1522,6191412,2024-11-03,2024-11-09,Ashokan Reservoir </br> 0.59%
Nov-03-2024 to Nov-09-2024,NY,Ashokan Reservoir,0.38,41.95886,-74.243,6191414,2024-11-03,2024-11-09,Ashokan Reservoir </br> 0.38%
Nov-03-2024 to Nov-09-2024,NY,Rondout Reservoir,0.36,41.82605,-74.4718,6199522,2024-11-03,2024-11-09,Rondout Reservoir </br> 0.36%
Nov-03-2024 to Nov-09-2024,NY,Orange Lake,25.69,41.54905,-74.1036,6213032,2024-11-03,2024-11-09,Orange Lake </br> 25.69%
Nov-03-2024 to Nov-09-2024,NY,Kensico Reservoir,0.3,41.08937,-73.7455,6240309,2024-11-03,2024-11-09,Kensico Reservoir </br> 0.3%
Nov-03-2024 to Nov-09-2024,NY,Greenwood Lake,6.45,41.18539,-74.322,6244708,2024-11-03,2024-11-09,Greenwood Lake </br> 6.45%
Nov-03-2024 to Nov-09-2024,NJ,Wanaque Reservoir,1.23,41.07097,-74.2924,6244860,2024-11-03,2024-11-09,Wanaque Reservoir </br> 1.23%
Nov-03-2024 to Nov-09-2024,NJ,Boonton Reservoir,2.12,40.88257,-74.4082,6248826,2024-11-03,2024-11-09,Boonton Reservoir </br> 2.12%
Nov-03-2024 to Nov-09-2024,GA,Lake Tobesofkee,0.54,32.83627,-83.8092,6339936,2024-11-03,2024-11-09,Lake Tobesofkee </br> 0.54%
Nov-03-2024 to Nov-09-2024,GA,Carters Lake,0.66,34.61776,-84.6338,6479321,2024-11-03,2024-11-09,Carters Lake </br> 0.66%
Nov-03-2024 to Nov-09-2024,GA,Lake Sidney Lanier,0.24,34.20748,-84.0463,6495106,2024-11-03,2024-11-09,Lake Sidney Lanier </br> 0.24%
Nov-03-2024 to Nov-09-2024,MN,Albert Lea Lake,21.54,43.63017,-93.313,6558643,2024-11-03,2024-11-09,Albert Lea Lake </br> 21.54%
Nov-03-2024 to Nov-09-2024,IA,Clear Lake,19.06,43.12445,-93.4212,6565809,2024-11-03,2024-11-09,Clear Lake </br> 19.06%
Nov-03-2024 to Nov-09-2024,MN,Lake Sarah,2.89,44.15423,-95.7673,6579638,2024-11-03,2024-11-09,Lake Sarah </br> 2.89%
Nov-03-2024 to Nov-09-2024,MN,Wildlife Impoundment,39.19,43.8772,-95.4536,6580624,2024-11-03,2024-11-09,Wildlife Impoundment </br> 39.19%
Nov-03-2024 to Nov-09-2024,MN,West Graham Lake,11.17,43.8022,-95.5144,6580706,2024-11-03,2024-11-09,West Graham Lake </br> 11.17%
Nov-03-2024 to Nov-09-2024,MN,Heron Lake,15.8,43.77322,-95.266,6580726,2024-11-03,2024-11-09,Heron Lake </br> 15.8%
Nov-03-2024 to Nov-09-2024,MN,South Heron Lake,16.19,43.72304,-95.2352,6580736,2024-11-03,2024-11-09,South Heron Lake </br> 16.19%
Nov-03-2024 to Nov-09-2024,IA,Silver Lake,22.28,43.03273,-94.887200000000007,6586887,2024-11-03,2024-11-09,Silver Lake </br> 22.28%
Nov-03-2024 to Nov-09-2024,MN,Bright Lake,43.32,43.56051,-94.578,6590532,2024-11-03,2024-11-09,Bright Lake </br> 43.32%
Nov-03-2024 to Nov-09-2024,IA,Storm Lake,1.91,42.62603,-95.2064,6606076,2024-11-03,2024-11-09,Storm Lake </br> 1.91%
Nov-03-2024 to Nov-09-2024,IA,Arrowhead Lake,8.89,42.29821,-95.0255,6608534,2024-11-03,2024-11-09,Arrowhead Lake </br> 8.89%
Nov-03-2024 to Nov-09-2024,MN,Lake Traverse,22.85,45.80034,-96.6049,6639922,2024-11-03,2024-11-09,Lake Traverse </br> 22.85%
Nov-03-2024 to Nov-09-2024,MN,Lake Traverse,17.73,45.70447,-96.7311,6640180,2024-11-03,2024-11-09,Lake Traverse </br> 17.73%
Nov-03-2024 to Nov-09-2024,MN,Lightning Lake,21.58,46.06931,-96.0848,6644772,2024-11-03,2024-11-09,Lightning Lake </br> 21.58%
Nov-03-2024 to Nov-09-2024,MN,East Toqua Lake,21.18,45.56135,-96.444,6646370,2024-11-03,2024-11-09,East Toqua Lake </br> 21.18%
Nov-03-2024 to Nov-09-2024,MN,Many Point Lake,0.29,47.07621,-95.537,6652551,2024-11-03,2024-11-09,Many Point Lake </br> 0.29%
Nov-03-2024 to Nov-09-2024,MN,Round Lake,0.14,47.03807,-95.5421,6652777,2024-11-03,2024-11-09,Round Lake </br> 0.14%
Nov-03-2024 to Nov-09-2024,MN,Upper Cormorant Lake,5.64,46.77885,-96.1314,6653711,2024-11-03,2024-11-09,Upper Cormorant Lake </br> 5.64%
Nov-03-2024 to Nov-09-2024,MN,Big Cormorant Lake,0.33,46.76731,-96.0584,6653737,2024-11-03,2024-11-09,Big Cormorant Lake </br> 0.33%
Nov-03-2024 to Nov-09-2024,MN,Lake Ida,2.35,46.73221,-96.0988,6653905,2024-11-03,2024-11-09,Lake Ida </br> 2.35%
Nov-03-2024 to Nov-09-2024,MN,Prairie Lake,0.77,46.60131,-96.0719,6654109,2024-11-03,2024-11-09,Prairie Lake </br> 0.77%
Nov-03-2024 to Nov-09-2024,MN,Flat Lake,34.79,46.97471,-95.6549,6654439,2024-11-03,2024-11-09,Flat Lake </br> 34.79%
Nov-03-2024 to Nov-09-2024,MN,Tamarac Lake,4.35,46.92495,-95.6742,6654571,2024-11-03,2024-11-09,Tamarac Lake </br> 4.35%
Nov-03-2024 to Nov-09-2024,MN,Island Lake,0.67,46.9301,-95.5319,6654581,2024-11-03,2024-11-09,Island Lake </br> 0.67%
Nov-03-2024 to Nov-09-2024,MN,Height of Land Lake,0.89,46.89143,-95.6066,6654673,2024-11-03,2024-11-09,Height of Land Lake </br> 0.89%
Nov-03-2024 to Nov-09-2024,MN,Cotton Lake,0.16,46.88281,-95.6982,6654733,2024-11-03,2024-11-09,Cotton Lake </br> 0.16%
Nov-03-2024 to Nov-09-2024,MN,Floyd Lake,0.46,46.87126,-95.8578,6654769,2024-11-03,2024-11-09,Floyd Lake </br> 0.46%
Nov-03-2024 to Nov-09-2024,MN,Toad Lake,2.05,46.86524,-95.4908,6654805,2024-11-03,2024-11-09,Toad Lake </br> 2.05%
Nov-03-2024 to Nov-09-2024,MN,Detroit Lake,0.12,46.7891,-95.8317,6655119,2024-11-03,2024-11-09,Detroit Lake </br> 0.12%
Nov-03-2024 to Nov-09-2024,MN,Lake Sallie,0.27,46.77095,-95.8956,6655199,2024-11-03,2024-11-09,Lake Sallie </br> 0.27%
Nov-03-2024 to Nov-09-2024,MN,Lake Maud,0.11,46.74697,-95.9839,6655293,2024-11-03,2024-11-09,Lake Maud </br> 0.11%
Nov-03-2024 to Nov-09-2024,MN,Lake Melissa,0.08,46.7423,-95.8974,6655307,2024-11-03,2024-11-09,Lake Melissa </br> 0.08%
Nov-03-2024 to Nov-09-2024,MN,Pelican Lake,0.05,46.70574,-95.9825,6655435,2024-11-03,2024-11-09,Pelican Lake </br> 0.05%
Nov-03-2024 to Nov-09-2024,MN,Rose Lake,0.07,46.67387,-95.7467,6655603,2024-11-03,2024-11-09,Rose Lake </br> 0.07%
Nov-03-2024 to Nov-09-2024,MN,Lake Franklin,0.03,46.6431,-95.9727,6655725,2024-11-03,2024-11-09,Lake Franklin </br> 0.03%
Nov-03-2024 to Nov-09-2024,MN,Big Pine Lake,9.4,46.6091,-95.4954,6655827,2024-11-03,2024-11-09,Big Pine Lake </br> 9.4%
Nov-03-2024 to Nov-09-2024,MN,Little McDonald Lake,0.04,46.61089,-95.7038,6655871,2024-11-03,2024-11-09,Little McDonald Lake </br> 0.04%
Nov-03-2024 to Nov-09-2024,MN,Big McDonald Lake,0.02,46.58107,-95.767,6656013,2024-11-03,2024-11-09,Big McDonald Lake </br> 0.02%
Nov-03-2024 to Nov-09-2024,MN,West McDonald Lake,0.02,46.58204,-95.7887,6656023,2024-11-03,2024-11-09,West McDonald Lake </br> 0.02%
Nov-03-2024 to Nov-09-2024,MN,Marion Lake,0.28,46.53074,-95.6554,6656233,2024-11-03,2024-11-09,Marion Lake </br> 0.28%
Nov-03-2024 to Nov-09-2024,MN,Mud Lake,2.91,46.63356,-95.5605,6656797,2024-11-03,2024-11-09,Mud Lake </br> 2.91%
Nov-03-2024 to Nov-09-2024,MN,Lake Jewett,0.15,46.41194,-96.0501,6657425,2024-11-03,2024-11-09,Lake Jewett </br> 0.15%
Nov-03-2024 to Nov-09-2024,MN,Buchanan Lake,1.33,46.44965,-95.5553,6658499,2024-11-03,2024-11-09,Buchanan Lake </br> 1.33%
Nov-03-2024 to Nov-09-2024,MN,Long Lake,39.3,46.45119,-95.6347,6658507,2024-11-03,2024-11-09,Long Lake </br> 39.3%
Nov-03-2024 to Nov-09-2024,MN,Walker Lake,1.58,46.43529,-95.6774,6658543,2024-11-03,2024-11-09,Walker Lake </br> 1.58%
Nov-03-2024 to Nov-09-2024,MN,Otter Tail Lake,0.04,46.39913,-95.6616,6658551,2024-11-03,2024-11-09,Otter Tail Lake </br> 0.04%
Nov-03-2024 to Nov-09-2024,MN,Fish Lake,1.25,46.35723,-95.9298,6658667,2024-11-03,2024-11-09,Fish Lake </br> 1.25%
Nov-03-2024 to Nov-09-2024,MN,East Lost Lake,0.57,46.35794,-95.7784,6658673,2024-11-03,2024-11-09,East Lost Lake </br> 0.57%
Nov-03-2024 to Nov-09-2024,MN,Lake Blanche,0.06,46.34794,-95.6593,6658711,2024-11-03,2024-11-09,Lake Blanche </br> 0.06%
Nov-03-2024 to Nov-09-2024,MN,West Battle Lake,0.04,46.29477,-95.6589,6658833,2024-11-03,2024-11-09,West Battle Lake </br> 0.04%
Nov-03-2024 to Nov-09-2024,MN,East Battle Lake,0.1,46.29551,-95.5496,6658837,2024-11-03,2024-11-09,East Battle Lake </br> 0.1%
Nov-03-2024 to Nov-09-2024,MN,Wall Lake,0.28,46.27333,-95.9643,6658861,2024-11-03,2024-11-09,Wall Lake </br> 0.28%
Nov-03-2024 to Nov-09-2024,MN,Clitherall Lake,0.1,46.25042,-95.6664,6658899,2024-11-03,2024-11-09,Clitherall Lake </br> 0.1%
Nov-03-2024 to Nov-09-2024,ND,Grass Lake,7.12,46.09872,-97.2381,6675304,2024-11-03,2024-11-09,Grass Lake </br> 7.12%
Nov-03-2024 to Nov-09-2024,MN,Albert Lake,0.68,46.92656,-95.7564,6689713,2024-11-03,2024-11-09,Albert Lake </br> 0.68%
Nov-03-2024 to Nov-09-2024,ME,Webb Lake,0.33,44.69607,-70.4478,6709789,2024-11-03,2024-11-09,Webb Lake </br> 0.33%
Nov-03-2024 to Nov-09-2024,ME,Ellis Pond,0.29,44.66007,-70.6759,6709797,2024-11-03,2024-11-09,Ellis Pond </br> 0.29%
Nov-03-2024 to Nov-09-2024,ME,Sabattus Pond,27.26,44.1467,-70.0984,6711483,2024-11-03,2024-11-09,Sabattus Pond </br> 27.26%
Nov-03-2024 to Nov-09-2024,ME,Lake Auburn,0.13,44.14685,-70.2526,6711485,2024-11-03,2024-11-09,Lake Auburn </br> 0.13%
Nov-03-2024 to Nov-09-2024,ME,Thompson Lake,0.11,44.0723,-70.4889,6711523,2024-11-03,2024-11-09,Thompson Lake </br> 0.11%
Nov-03-2024 to Nov-09-2024,ME,Taylor Pond,0.13,44.10628,-70.2794,6711533,2024-11-03,2024-11-09,Taylor Pond </br> 0.13%
Nov-03-2024 to Nov-09-2024,ME,Pleasant Lake,0.12,44.03691,-70.5249,6718889,2024-11-03,2024-11-09,Pleasant Lake </br> 0.12%
Nov-03-2024 to Nov-09-2024,ME,Brandy Pond,0.14,43.95544,-70.5897,6719641,2024-11-03,2024-11-09,Brandy Pond </br> 0.14%
Nov-03-2024 to Nov-09-2024,ME,Peabody Pond,0.31,43.94445,-70.6877,6719667,2024-11-03,2024-11-09,Peabody Pond </br> 0.31%
Nov-03-2024 to Nov-09-2024,ME,Panther Pond,0.11,43.92643,-70.4679,6719681,2024-11-03,2024-11-09,Panther Pond </br> 0.11%
Nov-03-2024 to Nov-09-2024,ME,Sebago Lake Basin,0.24,43.85611,-70.5483,6719717,2024-11-03,2024-11-09,Sebago Lake Basin </br> 0.24%
Nov-03-2024 to Nov-09-2024,ME,Upper Bay,0.38,43.87862,-70.4132,6719733,2024-11-03,2024-11-09,Upper Bay </br> 0.38%
Nov-03-2024 to Nov-09-2024,NH,Squam Lake,0.17,43.75096,-71.5248,6729259,2024-11-03,2024-11-09,Squam Lake </br> 0.17%
Nov-03-2024 to Nov-09-2024,NH,Newfound Lake,0.31,43.6602,-71.7686,6729343,2024-11-03,2024-11-09,Newfound Lake </br> 0.31%
Nov-03-2024 to Nov-09-2024,NH,Lake Waukewan,0.22,43.66188,-71.5318,6738156,2024-11-03,2024-11-09,Lake Waukewan </br> 0.22%
Nov-03-2024 to Nov-09-2024,NH,Lake Wentworth,0.15,43.59693,-71.1569,6738198,2024-11-03,2024-11-09,Lake Wentworth </br> 0.15%
Nov-03-2024 to Nov-09-2024,NH,Merrymeeting Lake,0.63,43.48774,-71.1571,6738920,2024-11-03,2024-11-09,Merrymeeting Lake </br> 0.63%
Nov-03-2024 to Nov-09-2024,NH,Webster Lake,0.26,43.47029,-71.6865,6738922,2024-11-03,2024-11-09,Webster Lake </br> 0.26%
Nov-03-2024 to Nov-09-2024,NH,Pleasant Lake,0.23,43.42593,-71.9534,6760512,2024-11-03,2024-11-09,Pleasant Lake </br> 0.23%
Nov-03-2024 to Nov-09-2024,WI,Presque Isle Lake,0.14,46.22258,-89.7798,6792133,2024-11-03,2024-11-09,Presque Isle Lake </br> 0.14%
Nov-03-2024 to Nov-09-2024,WI,Nocquebay Lake 118,0.4,45.25674,-87.9077,6818344,2024-11-03,2024-11-09,Nocquebay Lake 118 </br> 0.4%
Nov-03-2024 to Nov-09-2024,WI,White Potato Lake,0.47,45.14429,-88.2108,6819818,2024-11-03,2024-11-09,White Potato Lake </br> 0.47%
Nov-03-2024 to Nov-09-2024,MI,Ned Lake,0.78,46.44994,-88.3319,6829781,2024-11-03,2024-11-09,Ned Lake </br> 0.78%
Nov-03-2024 to Nov-09-2024,MI,Michigamme Reservoir,0.7,46.17884,-88.2104,6830759,2024-11-03,2024-11-09,Michigamme Reservoir </br> 0.7%
Nov-03-2024 to Nov-09-2024,MI,Fumee Lake,5.93,45.82632,-87.9747,6840347,2024-11-03,2024-11-09,Fumee Lake </br> 5.93%
Nov-03-2024 to Nov-09-2024,WI,Halsey Lake,26.15,45.84794,-88.6328,6842481,2024-11-03,2024-11-09,Halsey Lake </br> 26.15%
Nov-03-2024 to Nov-09-2024,MI,Lake Antoine,0.5,45.83705,-88.0323,6842499,2024-11-03,2024-11-09,Lake Antoine </br> 0.5%
Nov-03-2024 to Nov-09-2024,WI,Lake Butte des Morts,10.88,44.06998,-88.6385,6863055,2024-11-03,2024-11-09,Lake Butte des Morts </br> 10.88%
Nov-03-2024 to Nov-09-2024,WI,Puckaway Lake,3.52,43.75654,-89.1711,6866527,2024-11-03,2024-11-09,Puckaway Lake </br> 3.52%
Nov-03-2024 to Nov-09-2024,WI,Mason Lake,14.07,43.65788,-89.6085,6866613,2024-11-03,2024-11-09,Mason Lake </br> 14.07%
Nov-03-2024 to Nov-09-2024,VA,Claytor Lake,0.42,37.04966,-80.6399,6883548,2024-11-03,2024-11-09,Claytor Lake </br> 0.42%
Nov-03-2024 to Nov-09-2024,MN,Geneva Lake,29.19,43.79228,-93.2734,7014901,2024-11-03,2024-11-09,Geneva Lake </br> 29.19%
Nov-03-2024 to Nov-09-2024,MN,Upper Rice Lake,0.73,47.39444,-95.2952,7027747,2024-11-03,2024-11-09,Upper Rice Lake </br> 0.73%
Nov-03-2024 to Nov-09-2024,MN,Roy Lake,1.86,47.31736,-95.5519,7028003,2024-11-03,2024-11-09,Roy Lake </br> 1.86%
Nov-03-2024 to Nov-09-2024,MN,North Twin Lake,2.06,47.25637,-95.645,7028251,2024-11-03,2024-11-09,North Twin Lake </br> 2.06%
Nov-03-2024 to Nov-09-2024,MN,South Twin Lake,0.6,47.23271,-95.6449,7028377,2024-11-03,2024-11-09,South Twin Lake </br> 0.6%
Nov-03-2024 to Nov-09-2024,MN,Tulaby Lake,3.29,47.15106,-95.6037,7029157,2024-11-03,2024-11-09,Tulaby Lake </br> 3.29%
Nov-03-2024 to Nov-09-2024,MN,White Earth Lake,0.13,47.12738,-95.7553,7029221,2024-11-03,2024-11-09,White Earth Lake </br> 0.13%
Nov-03-2024 to Nov-09-2024,MN,Big Rat Lake,2.97,47.09251,-95.6628,7029509,2024-11-03,2024-11-09,Big Rat Lake </br> 2.97%
Nov-03-2024 to Nov-09-2024,MN,Strawberry Lake,0.31,47.07128,-95.7,7029583,2024-11-03,2024-11-09,Strawberry Lake </br> 0.31%
Nov-03-2024 to Nov-09-2024,MN,Maple Lake,7.72,47.65893,-96.1598,7053191,2024-11-03,2024-11-09,Maple Lake </br> 7.72%
Nov-03-2024 to Nov-09-2024,MN,Clearwater Lake,0.39,47.73413,-95.19,7054479,2024-11-03,2024-11-09,Clearwater Lake </br> 0.39%
Nov-03-2024 to Nov-09-2024,MN,Pine Lake,0.24,47.69354,-95.5263,7054789,2024-11-03,2024-11-09,Pine Lake </br> 0.24%
Nov-03-2024 to Nov-09-2024,MN,Sea Gull Lake,0.1,48.13347,-90.9344,7092575,2024-11-03,2024-11-09,Sea Gull Lake </br> 0.1%
Nov-03-2024 to Nov-09-2024,MN,Gunflint Lake,0.49,48.10001,-90.6739,7092631,2024-11-03,2024-11-09,Gunflint Lake </br> 0.49%
Nov-03-2024 to Nov-09-2024,MN,Iron Lake,0.26,48.22773,-91.9315,7095015,2024-11-03,2024-11-09,Iron Lake </br> 0.26%
Nov-03-2024 to Nov-09-2024,MN,Kekekabic Lake,0.09,48.0655,-91.1865,7095681,2024-11-03,2024-11-09,Kekekabic Lake </br> 0.09%
Nov-03-2024 to Nov-09-2024,MN,South Arm Knife Lake,0.12,48.102,-91.1822,7097721,2024-11-03,2024-11-09,South Arm Knife Lake </br> 0.12%
Nov-03-2024 to Nov-09-2024,MN,Basswood Lake,0.33,48.05634,-91.6322,7097779,2024-11-03,2024-11-09,Basswood Lake </br> 0.33%
Nov-03-2024 to Nov-09-2024,MN,Lac la Croix,0.14,48.31834,-92.121,7100709,2024-11-03,2024-11-09,Lac la Croix </br> 0.14%
Nov-03-2024 to Nov-09-2024,MN,Oyster Lake,0.33,48.22443,-92.1061,7101767,2024-11-03,2024-11-09,Oyster Lake </br> 0.33%
Nov-03-2024 to Nov-09-2024,MN,Lake Agnes,0.69,48.21543,-92.0552,7101819,2024-11-03,2024-11-09,Lake Agnes </br> 0.69%
Nov-03-2024 to Nov-09-2024,MN,Big Moose Lake,0.09,48.04578,-92.0834,7103529,2024-11-03,2024-11-09,Big Moose Lake </br> 0.09%
Nov-03-2024 to Nov-09-2024,MN,Burntside Lake,0.14,47.94684,-91.9594,7107329,2024-11-03,2024-11-09,Burntside Lake </br> 0.14%
Nov-03-2024 to Nov-09-2024,MN,Alice Lake,0.17,47.94211,-91.2165,7107491,2024-11-03,2024-11-09,Alice Lake </br> 0.17%
Nov-03-2024 to Nov-09-2024,MN,Basswood Lake,0.11,47.94972,-91.7419,7107519,2024-11-03,2024-11-09,Basswood Lake </br> 0.11%
Nov-03-2024 to Nov-09-2024,MN,Farm Lake,0.11,47.8862,-91.7631,7107795,2024-11-03,2024-11-09,Farm Lake </br> 0.11%
Nov-03-2024 to Nov-09-2024,MN,Shagawa Lake,4.17,47.91541,-91.8831,7107851,2024-11-03,2024-11-09,Shagawa Lake </br> 4.17%
Nov-03-2024 to Nov-09-2024,MN,Bald Eagle Lake,0.33,47.83783,-91.5707,7108121,2024-11-03,2024-11-09,Bald Eagle Lake </br> 0.33%
Nov-03-2024 to Nov-09-2024,MN,Isabella Lake,0.19,47.81041,-91.2885,7108425,2024-11-03,2024-11-09,Isabella Lake </br> 0.19%
Nov-03-2024 to Nov-09-2024,MN,Perent Lake,0.21,47.79843,-91.1378,7108481,2024-11-03,2024-11-09,Perent Lake </br> 0.21%
Nov-03-2024 to Nov-09-2024,MN,Birch Lake,0.39,47.74583,-91.848,7108515,2024-11-03,2024-11-09,Birch Lake </br> 0.39%
Nov-03-2024 to Nov-09-2024,MN,Silver Island Lake,0.24,47.73326,-91.1354,7108851,2024-11-03,2024-11-09,Silver Island Lake </br> 0.24%
Nov-03-2024 to Nov-09-2024,MN,Echo Lake,2.91,48.17665,-92.4724,7137600,2024-11-03,2024-11-09,Echo Lake </br> 2.91%
Nov-03-2024 to Nov-09-2024,MN,Pelican Lake,0.25,48.06199,-92.9057,7138266,2024-11-03,2024-11-09,Pelican Lake </br> 0.25%
Nov-03-2024 to Nov-09-2024,MN,Moose Lake,0.27,48.08146,-92.7898,7138318,2024-11-03,2024-11-09,Moose Lake </br> 0.27%
Nov-03-2024 to Nov-09-2024,MN,Myrtle Lake,10.33,48.07961,-92.68,7138332,2024-11-03,2024-11-09,Myrtle Lake </br> 10.33%
Nov-03-2024 to Nov-09-2024,MN,Vermilion Lake,1.04,47.8832,-92.3985,7142570,2024-11-03,2024-11-09,Vermilion Lake </br> 1.04%
Nov-03-2024 to Nov-09-2024,MN,Eagles Nest Lake Number Three,0.12,47.81439,-92.0898,7143102,2024-11-03,2024-11-09,Eagles Nest Lake Number Three </br> 0.12%
Nov-03-2024 to Nov-09-2024,MN,Johnson Lake,0.21,48.34016,-92.6002,7153174,2024-11-03,2024-11-09,Johnson Lake </br> 0.21%
Nov-03-2024 to Nov-09-2024,MN,Mukooda Lake,0.11,48.33627,-92.4886,7153320,2024-11-03,2024-11-09,Mukooda Lake </br> 0.11%
Nov-03-2024 to Nov-09-2024,MN,Ash Lake,5.67,48.21342,-92.9371,7153992,2024-11-03,2024-11-09,Ash Lake </br> 5.67%
Nov-03-2024 to Nov-09-2024,MN,Black Duck Lake,8.48,48.2021,-92.8218,7154030,2024-11-03,2024-11-09,Black Duck Lake </br> 8.48%
Nov-03-2024 to Nov-09-2024,MN,Nett Lake,0.16,48.11422,-93.1111,7170860,2024-11-03,2024-11-09,Nett Lake </br> 0.16%
Nov-03-2024 to Nov-09-2024,MN,Burntside Lake,0.07,47.91613,-92.0239,7172534,2024-11-03,2024-11-09,Burntside Lake </br> 0.07%
Nov-03-2024 to Nov-09-2024,MN,Lost Lake,4.67,47.82307,-92.4129,7172886,2024-11-03,2024-11-09,Lost Lake </br> 4.67%
Nov-03-2024 to Nov-09-2024,MN,Big Rice Lake,0.27,47.6952,-92.489,7173274,2024-11-03,2024-11-09,Big Rice Lake </br> 0.27%
Nov-03-2024 to Nov-09-2024,MN,Sand Lake,0.45,47.64863,-92.6355,7173388,2024-11-03,2024-11-09,Sand Lake </br> 0.45%
Nov-03-2024 to Nov-09-2024,MN,Sturgeon Lake,1.17,47.67898,-93.052,7175900,2024-11-03,2024-11-09,Sturgeon Lake </br> 1.17%
Nov-03-2024 to Nov-09-2024,MN,Island Lake Reservoir,0.36,47.02199,-92.1809,7177914,2024-11-03,2024-11-09,Island Lake Reservoir </br> 0.36%
Nov-03-2024 to Nov-09-2024,SD,Lake Herman,17.32,43.98864,-97.1719,7219306,2024-11-03,2024-11-09,Lake Herman </br> 17.32%
Nov-03-2024 to Nov-09-2024,SD,Clear Lake,16.99,43.76074,-97.0121,7220310,2024-11-03,2024-11-09,Clear Lake </br> 16.99%
Nov-03-2024 to Nov-09-2024,SD,Bourne Slough,21.12,43.94599,-96.9946,7221450,2024-11-03,2024-11-09,Bourne Slough </br> 21.12%
Nov-03-2024 to Nov-09-2024,SD,Brant Lake,15.21,43.92162,-96.9487,7221456,2024-11-03,2024-11-09,Brant Lake </br> 15.21%
Nov-03-2024 to Nov-09-2024,KS,Wilson Lake,0.36,38.94028,-98.5577,7330556,2024-11-03,2024-11-09,Wilson Lake </br> 0.36%
Nov-03-2024 to Nov-09-2024,KS,Kirwin Reservoir,0.25,39.65384,-99.1684,7344817,2024-11-03,2024-11-09,Kirwin Reservoir </br> 0.25%
Nov-03-2024 to Nov-09-2024,MO,Pomme de Terre Lake,0.58,37.85322,-93.3307,7387259,2024-11-03,2024-11-09,Pomme de Terre Lake </br> 0.58%
Nov-03-2024 to Nov-09-2024,TN,Open Lake,48.14,35.79349,-89.6949,7470660,2024-11-03,2024-11-09,Open Lake </br> 48.14%
Nov-03-2024 to Nov-09-2024,TN,Upper Blue Basin,11.05,36.46478,-89.3401,7483602,2024-11-03,2024-11-09,Upper Blue Basin </br> 11.05%
Nov-03-2024 to Nov-09-2024,TN,Reelfoot - mix land,5.95,36.41785,-89.351,7483614,2024-11-03,2024-11-09,Reelfoot - mix land </br> 5.95%
Nov-03-2024 to Nov-09-2024,TN,Reelfoot Lake,38.77,36.38194,-89.402,7483636,2024-11-03,2024-11-09,Reelfoot Lake </br> 38.77%
Nov-03-2024 to Nov-09-2024,MA,Quaboag Pond,2.32,42.19606,-72.0688,7689341,2024-11-03,2024-11-09,Quaboag Pond </br> 2.32%
Nov-03-2024 to Nov-09-2024,CT,Bantam Lake,12.93,41.70448,-73.2214,7711438,2024-11-03,2024-11-09,Bantam Lake </br> 12.93%
Nov-03-2024 to Nov-09-2024,MN,Lake of the Woods,0.5,49.35547,-95.0507,7748124,2024-11-03,2024-11-09,Lake of the Woods </br> 0.5%
Nov-03-2024 to Nov-09-2024,AR,Lake Dardanelle,0.3,35.33867,-93.3353,7767759,2024-11-03,2024-11-09,Lake Dardanelle </br> 0.3%
Nov-03-2024 to Nov-09-2024,AR,Lake Dardanelle,0.35,35.40922,-93.3317,7767793,2024-11-03,2024-11-09,Lake Dardanelle </br> 0.35%
Nov-03-2024 to Nov-09-2024,AR,Blue Mountain Lake,13.02,35.09943,-93.7007,7801259,2024-11-03,2024-11-09,Blue Mountain Lake </br> 13.02%
Nov-03-2024 to Nov-09-2024,AR,Harris Brake Public Fishing Lake,4.16,34.97655,-92.7714,7826252,2024-11-03,2024-11-09,Harris Brake Public Fishing Lake </br> 4.16%
Nov-03-2024 to Nov-09-2024,AR,Nimrod Lake,7.68,34.95496,-93.2133,7827790,2024-11-03,2024-11-09,Nimrod Lake </br> 7.68%
Nov-03-2024 to Nov-09-2024,TX,Redfish Lake,16.91,28.7873,-96.5657,7842267,2024-11-03,2024-11-09,Redfish Lake </br> 16.91%
Nov-03-2024 to Nov-09-2024,TX,Swan Lake,5.87,28.73708,-96.5668,7842395,2024-11-03,2024-11-09,Swan Lake </br> 5.87%
Nov-03-2024 to Nov-09-2024,UT,Dike Lake,8.93,41.51061,-112.237,7907220,2024-11-03,2024-11-09,Dike Lake </br> 8.93%
Nov-03-2024 to Nov-09-2024,OR,Drews Reservoir,4.35,42.16955,-120.666,7914901,2024-11-03,2024-11-09,Drews Reservoir </br> 4.35%
Nov-03-2024 to Nov-09-2024,CA,West Valley Reservoir,0.97,41.2011,-120.4,7927103,2024-11-03,2024-11-09,West Valley Reservoir </br> 0.97%
Nov-03-2024 to Nov-09-2024,CA,Moon Lake,0.6,41.08988,-120.398,7927141,2024-11-03,2024-11-09,Moon Lake </br> 0.6%
Nov-03-2024 to Nov-09-2024,CA,Silva Flat Reservoir,2.2,40.95741,-120.91,7933297,2024-11-03,2024-11-09,Silva Flat Reservoir </br> 2.2%
Nov-03-2024 to Nov-09-2024,CA,Big Lake/Horr Pond,0.38,41.1115,-121.419,7947624,2024-11-03,2024-11-09,Big Lake/Horr Pond </br> 0.38%
