date_range,state,lake,chance_cyanoHAB,lat,lon,COMID,date_start,date_end,label
Sep-01-2024 to Sep-07-2024,ME,Pleasant Lake,1.37,46.02266,-68.1624,759,2024-09-01,2024-09-07,Pleasant Lake </br> 1.37%
Sep-01-2024 to Sep-07-2024,ME,Jackson Brook Lake,6.27,45.53332,-67.7441,1637,2024-09-01,2024-09-07,Jackson Brook Lake </br> 6.27%
Sep-01-2024 to Sep-07-2024,ME,Wytopitlock Lake,2.46,45.79854,-68.1596,2311,2024-09-01,2024-09-07,Wytopitlock Lake </br> 2.46%
Sep-01-2024 to Sep-07-2024,CO,Boyd Lake,4.42,40.43393,-105.033,11646,2024-09-01,2024-09-07,Boyd Lake </br> 4.42%
Sep-01-2024 to Sep-07-2024,CO,Lake Loveland,3.88,40.412350000000004,-105.087,11682,2024-09-01,2024-09-07,Lake Loveland </br> 3.88%
Sep-01-2024 to Sep-07-2024,CO,Carter Lake Reservoir,1.93,40.33504,-105.218,11816,2024-09-01,2024-09-07,Carter Lake Reservoir </br> 1.93%
Sep-01-2024 to Sep-07-2024,FL,Rodgers River Bay,1.73,25.56711,-81.0981,84918,2024-09-01,2024-09-07,Rodgers River Bay </br> 1.73%
Sep-01-2024 to Sep-07-2024,FL,West Lake,93.32,25.20776,-80.824700000000007,86672,2024-09-01,2024-09-07,West Lake </br> 93.32%
Sep-01-2024 to Sep-07-2024,FL,Cuthbert Lake,98.99,25.20805,-80.7758,86678,2024-09-01,2024-09-07,Cuthbert Lake </br> 98.99%
Sep-01-2024 to Sep-07-2024,FL,Seven Palm Lake,87.54,25.1935,-80.7295,86706,2024-09-01,2024-09-07,Seven Palm Lake </br> 87.54%
Sep-01-2024 to Sep-07-2024,FL,Monroe Lake,78.62,25.17788,-80.7405,86758,2024-09-01,2024-09-07,Monroe Lake </br> 78.62%
Sep-01-2024 to Sep-07-2024,FL,Bear Lake,88.66,25.16884,-80.9597,86782,2024-09-01,2024-09-07,Bear Lake </br> 88.66%
Sep-01-2024 to Sep-07-2024,FL,Coot Bay Pond,28.7,25.19438,-80.9166,89704,2024-09-01,2024-09-07,Coot Bay Pond </br> 28.7%
Sep-01-2024 to Sep-07-2024,FL,Lake Ingraham,29.71,25.15963,-81.1121,91346,2024-09-01,2024-09-07,Lake Ingraham </br> 29.71%
Sep-01-2024 to Sep-07-2024,CO,Marston Lake,1.93,39.62961,-105.068,187905,2024-09-01,2024-09-07,Marston Lake </br> 1.93%
Sep-01-2024 to Sep-07-2024,CO,Chatfield Lake,2.19,39.54464,-105.067,188031,2024-09-01,2024-09-07,Chatfield Lake </br> 2.19%
Sep-01-2024 to Sep-07-2024,TX,Sal del Ray,1.8,26.5372,-98.0564,201345,2024-09-01,2024-09-07,Sal del Ray </br> 1.8%
Sep-01-2024 to Sep-07-2024,TX,La Sal Vieja,2.12,26.53074,-97.8765,202621,2024-09-01,2024-09-07,La Sal Vieja </br> 2.12%
Sep-01-2024 to Sep-07-2024,TX,Unit Number Two,99.95,26.4129,-97.9464,204341,2024-09-01,2024-09-07,Unit Number Two </br> 99.95%
Sep-01-2024 to Sep-07-2024,TX,Laguna Atascosa,19.33,26.23655,-97.3888,204781,2024-09-01,2024-09-07,Laguna Atascosa </br> 19.33%
Sep-01-2024 to Sep-07-2024,TX,Reservoir Number One,99.58,26.0565,-97.7273,205377,2024-09-01,2024-09-07,Reservoir Number One </br> 99.58%
Sep-01-2024 to Sep-07-2024,TX,Resaca de La Palma Reservoir,99.97,25.97196,-97.5511,207611,2024-09-01,2024-09-07,Resaca de La Palma Reservoir </br> 99.97%
Sep-01-2024 to Sep-07-2024,CO,Jackson Reservoir,86.99,40.39189,-104.074,224233,2024-09-01,2024-09-07,Jackson Reservoir </br> 86.99%
Sep-01-2024 to Sep-07-2024,CO,Riverside Reservoir,56.78,40.33816,-104.263,224311,2024-09-01,2024-09-07,Riverside Reservoir </br> 56.78%
Sep-01-2024 to Sep-07-2024,CO,Lower Latham Reservoir,83.73,40.34583,-104.639,224361,2024-09-01,2024-09-07,Lower Latham Reservoir </br> 83.73%
Sep-01-2024 to Sep-07-2024,CO,Empire Reservoir,81.32,40.2678,-104.163,224443,2024-09-01,2024-09-07,Empire Reservoir </br> 81.32%
Sep-01-2024 to Sep-07-2024,CO,Milton Reservoir,50.41,40.2264,-104.642,224573,2024-09-01,2024-09-07,Milton Reservoir </br> 50.41%
Sep-01-2024 to Sep-07-2024,CO,Standley Lake,4.1,39.86374,-105.124,228235,2024-09-01,2024-09-07,Standley Lake </br> 4.1%
Sep-01-2024 to Sep-07-2024,CO,Barr Lake,33.79,39.94319,-104.764,228919,2024-09-01,2024-09-07,Barr Lake </br> 33.79%
Sep-01-2024 to Sep-07-2024,CO,Cherry Creek Lake,13.83,39.64032,-104.855,229217,2024-09-01,2024-09-07,Cherry Creek Lake </br> 13.83%
Sep-01-2024 to Sep-07-2024,OK,Lake Hefner,13.64,35.56682,-97.5951,253350,2024-09-01,2024-09-07,Lake Hefner </br> 13.64%
Sep-01-2024 to Sep-07-2024,MI,Round Lake,2.63,46.15092,-86.7447,271501,2024-09-01,2024-09-07,Round Lake </br> 2.63%
Sep-01-2024 to Sep-07-2024,OK,Shell Lake,69.29,36.19126,-96.1797,368347,2024-09-01,2024-09-07,Shell Lake </br> 69.29%
Sep-01-2024 to Sep-07-2024,OK,Webbers Falls Reservoir,2.19,35.60737,-95.221,381408,2024-09-01,2024-09-07,Webbers Falls Reservoir </br> 2.19%
Sep-01-2024 to Sep-07-2024,OK,Canton Lake,82.61,36.12569,-98.6147,389774,2024-09-01,2024-09-07,Canton Lake </br> 82.61%
Sep-01-2024 to Sep-07-2024,OK,Tenkiller Lake,1.8,35.7169,-94.9482,399680,2024-09-01,2024-09-07,Tenkiller Lake </br> 1.8%
Sep-01-2024 to Sep-07-2024,OK,Tenkiller Ferry Lake,2.47,35.63059,-95.0342,402142,2024-09-01,2024-09-07,Tenkiller Ferry Lake </br> 2.47%
Sep-01-2024 to Sep-07-2024,OK,Lake Murray,3.07,34.07157,-97.0757,423160,2024-09-01,2024-09-07,Lake Murray </br> 3.07%
Sep-01-2024 to Sep-07-2024,OK,Stanley Draper Lake,6.79,35.35016,-97.356,481582,2024-09-01,2024-09-07,Stanley Draper Lake </br> 6.79%
Sep-01-2024 to Sep-07-2024,OK,Lake Thunderbird,69.61,35.23374,-97.2577,481656,2024-09-01,2024-09-07,Lake Thunderbird </br> 69.61%
Sep-01-2024 to Sep-07-2024,OK,Lake McMurtry,21.12,36.18245,-97.1858,491560,2024-09-01,2024-09-07,Lake McMurtry </br> 21.12%
Sep-01-2024 to Sep-07-2024,OK,Lake Carl Blackwell,65.89,36.13618,-97.228,491604,2024-09-01,2024-09-07,Lake Carl Blackwell </br> 65.89%
Sep-01-2024 to Sep-07-2024,OK,Lake McAlester,7.47,35.03047,-95.8296,510415,2024-09-01,2024-09-07,Lake McAlester </br> 7.47%
Sep-01-2024 to Sep-07-2024,OK,S Lake Eufaula,19.18,34.95741,-95.6102,513979,2024-09-01,2024-09-07,S Lake Eufaula </br> 19.18%
Sep-01-2024 to Sep-07-2024,OK,Dripping Springs Lake,2.57,35.56111,-96.1173,534887,2024-09-01,2024-09-07,Dripping Springs Lake </br> 2.57%
Sep-01-2024 to Sep-07-2024,OK,South Lake,2.15,34.0705,-95.4183,592596,2024-09-01,2024-09-07,South Lake </br> 2.15%
Sep-01-2024 to Sep-07-2024,OK,Pine Creek Reservoir,55.09,34.15248,-95.103,617546,2024-09-01,2024-09-07,Pine Creek Reservoir </br> 55.09%
Sep-01-2024 to Sep-07-2024,OK,Broken Bow Lake,2.41,34.21277,-94.6843,630011,2024-09-01,2024-09-07,Broken Bow Lake </br> 2.41%
Sep-01-2024 to Sep-07-2024,OK,Lake Ellsworth,56.52,34.82354,-98.3534,672210,2024-09-01,2024-09-07,Lake Ellsworth </br> 56.52%
Sep-01-2024 to Sep-07-2024,OK,Lake Lawtonka,64.98,34.75722,-98.5078,672260,2024-09-01,2024-09-07,Lake Lawtonka </br> 64.98%
Sep-01-2024 to Sep-07-2024,OK,Fort Cobb Reservoir,72.48,35.19674,-98.483,681831,2024-09-01,2024-09-07,Fort Cobb Reservoir </br> 72.48%
Sep-01-2024 to Sep-07-2024,ME,Long Lake,4.39,46.625,-69.3767,717696,2024-09-01,2024-09-07,Long Lake </br> 4.39%
Sep-01-2024 to Sep-07-2024,ME,Clear Lake,2.92,46.52027,-69.1287,717824,2024-09-01,2024-09-07,Clear Lake </br> 2.92%
Sep-01-2024 to Sep-07-2024,ME,Heron-Churchill Lakes,1.41,46.37289,-69.3412,719480,2024-09-01,2024-09-07,Heron-Churchill Lakes </br> 1.41%
Sep-01-2024 to Sep-07-2024,ME,Pleasant Lake,1.91,46.47316,-69.1799,719490,2024-09-01,2024-09-07,Pleasant Lake </br> 1.91%
Sep-01-2024 to Sep-07-2024,ME,Spider Lake,1.7,46.44826,-69.2087,719500,2024-09-01,2024-09-07,Spider Lake </br> 1.7%
Sep-01-2024 to Sep-07-2024,ME,Haymock Lake,0.99,46.30324,-69.1849,719644,2024-09-01,2024-09-07,Haymock Lake </br> 0.99%
Sep-01-2024 to Sep-07-2024,ME,Indian Pond,0.84,46.25543,-69.2934,719684,2024-09-01,2024-09-07,Indian Pond </br> 0.84%
Sep-01-2024 to Sep-07-2024,ME,Long Lake,1.58,47.20638,-68.241,723898,2024-09-01,2024-09-07,Long Lake </br> 1.58%
Sep-01-2024 to Sep-07-2024,ME,Mud Lake,1.05,47.15382,-68.292,723936,2024-09-01,2024-09-07,Mud Lake </br> 1.05%
Sep-01-2024 to Sep-07-2024,ME,Square Lake,1.6,47.06451,-68.4067,723938,2024-09-01,2024-09-07,Square Lake </br> 1.6%
Sep-01-2024 to Sep-07-2024,ME,Fish River Lake,3.56,46.82865,-68.7736,725058,2024-09-01,2024-09-07,Fish River Lake </br> 3.56%
Sep-01-2024 to Sep-07-2024,ME,Portage Lake,3.06,46.78602,-68.5091,725074,2024-09-01,2024-09-07,Portage Lake </br> 3.06%
Sep-01-2024 to Sep-07-2024,KS,Perry Lake,10.99,39.18347,-95.4522,746373,2024-09-01,2024-09-07,Perry Lake </br> 10.99%
Sep-01-2024 to Sep-07-2024,ME,Madawaska Lake,12.26,47.02536,-68.2131,802433,2024-09-01,2024-09-07,Madawaska Lake </br> 12.26%
Sep-01-2024 to Sep-07-2024,ME,Squapan Lake,3.41,46.54401,-68.2436,803413,2024-09-01,2024-09-07,Squapan Lake </br> 3.41%
Sep-01-2024 to Sep-07-2024,ME,Millinocket Lake,1.17,46.29874,-68.8853,806283,2024-09-01,2024-09-07,Millinocket Lake </br> 1.17%
Sep-01-2024 to Sep-07-2024,ME,Umcolcus Lake,2.46,46.28783,-68.4356,806301,2024-09-01,2024-09-07,Umcolcus Lake </br> 2.46%
Sep-01-2024 to Sep-07-2024,ME,Millimagassett Lake,0.56,46.28425,-68.7835,806311,2024-09-01,2024-09-07,Millimagassett Lake </br> 0.56%
Sep-01-2024 to Sep-07-2024,ME,Meduxnekeag Lake,1.79,46.09414,-68.0295,817877,2024-09-01,2024-09-07,Meduxnekeag Lake </br> 1.79%
Sep-01-2024 to Sep-07-2024,OK,Lake Yahola,18.74,36.22022,-95.9341,847048,2024-09-01,2024-09-07,Lake Yahola </br> 18.74%
Sep-01-2024 to Sep-07-2024,CO,Holbrook Reservoir,44.63,38.06316,-103.61,914071,2024-09-01,2024-09-07,Holbrook Reservoir </br> 44.63%
Sep-01-2024 to Sep-07-2024,CO,Turquoise Lake,3.48,39.26924,-106.383,916247,2024-09-01,2024-09-07,Turquoise Lake </br> 3.48%
Sep-01-2024 to Sep-07-2024,CO,Twin Lakes,1.96,39.08425,-106.333,916361,2024-09-01,2024-09-07,Twin Lakes </br> 1.96%
Sep-01-2024 to Sep-07-2024,CO,Twin Lakes Reservoir,2.37,39.07928,-106.365,916363,2024-09-01,2024-09-07,Twin Lakes Reservoir </br> 2.37%
Sep-01-2024 to Sep-07-2024,CO,Trinidad Lake,2.11,37.13644,-104.576,936750,2024-09-01,2024-09-07,Trinidad Lake </br> 2.11%
Sep-01-2024 to Sep-07-2024,CO,Lake Henry,83.72,38.26428,-103.709,975120,2024-09-01,2024-09-07,Lake Henry </br> 83.72%
Sep-01-2024 to Sep-07-2024,CO,Lake Meredith,81.34,38.19088,-103.703,975154,2024-09-01,2024-09-07,Lake Meredith </br> 81.34%
Sep-01-2024 to Sep-07-2024,TX,Lake A,1.32,33.10272,-95.0664,1010018,2024-09-01,2024-09-07,Lake A </br> 1.32%
Sep-01-2024 to Sep-07-2024,TX,Lake Cypress Springs,55.33,33.05924,-95.1886,1010164,2024-09-01,2024-09-07,Lake Cypress Springs </br> 55.33%
Sep-01-2024 to Sep-07-2024,TX,Lake O' the Pines,26.27,32.80087,-94.6107,1010832,2024-09-01,2024-09-07,Lake O' the Pines </br> 26.27%
Sep-01-2024 to Sep-07-2024,ME,Spencer Pond,1.65,45.74255,-69.5687,1021378,2024-09-01,2024-09-07,Spencer Pond </br> 1.65%
Sep-01-2024 to Sep-07-2024,ME,First Roach Pond,1.5,45.65463,-69.3792,1021504,2024-09-01,2024-09-07,First Roach Pond </br> 1.5%
Sep-01-2024 to Sep-07-2024,ME,Mountain View Pond,2.42,45.51955,-69.6901,1021692,2024-09-01,2024-09-07,Mountain View Pond </br> 2.42%
Sep-01-2024 to Sep-07-2024,ME,Long Pond,2.16,45.62674,-70.0871,1023054,2024-09-01,2024-09-07,Long Pond </br> 2.16%
Sep-01-2024 to Sep-07-2024,ME,Wood Pond,1.57,45.61972,-70.2776,1023066,2024-09-01,2024-09-07,Wood Pond </br> 1.57%
Sep-01-2024 to Sep-07-2024,ME,Attean Pond,1.44,45.56945,-70.2854,1023120,2024-09-01,2024-09-07,Attean Pond </br> 1.44%
Sep-01-2024 to Sep-07-2024,ME,Joes Hole,4.91,45.30665,-69.8405,1024266,2024-09-01,2024-09-07,Joes Hole </br> 4.91%
Sep-01-2024 to Sep-07-2024,ME,Fish Pond,2.57,45.40137,-70.2919,1031381,2024-09-01,2024-09-07,Fish Pond </br> 2.57%
Sep-01-2024 to Sep-07-2024,ME,Flagstaff Lake,1.71,45.19867,-70.3081,1031669,2024-09-01,2024-09-07,Flagstaff Lake </br> 1.71%
Sep-01-2024 to Sep-07-2024,ME,West Carry Pond,3.21,45.16877,-70.1111,1031729,2024-09-01,2024-09-07,West Carry Pond </br> 3.21%
Sep-01-2024 to Sep-07-2024,GA,Lake Sinclair,2.64,33.20784,-83.2584,1054153,2024-09-01,2024-09-07,Lake Sinclair </br> 2.64%
Sep-01-2024 to Sep-07-2024,MN,White Bear Lake,1.93,45.0773,-92.9805,1097324,2024-09-01,2024-09-07,White Bear Lake </br> 1.93%
Sep-01-2024 to Sep-07-2024,MN,Coon Lake,3.28,45.30549,-93.1664,1098396,2024-09-01,2024-09-07,Coon Lake </br> 3.28%
Sep-01-2024 to Sep-07-2024,MN,Bald Eagle Lake,33.63,45.11416,-93.0156,1099052,2024-09-01,2024-09-07,Bald Eagle Lake </br> 33.63%
Sep-01-2024 to Sep-07-2024,MN,Lower Lake (Lake Minnetonka),2.05,44.93976,-93.556,1101590,2024-09-01,2024-09-07,Lower Lake (Lake Minnetonka) </br> 2.05%
Sep-01-2024 to Sep-07-2024,MN,West Arm (Lake Minnetonka),79.78,44.94627,-93.6429,1101642,2024-09-01,2024-09-07,West Arm (Lake Minnetonka) </br> 79.78%
Sep-01-2024 to Sep-07-2024,MN,Lake Calhoun,4.61,44.9418,-93.3118,1101684,2024-09-01,2024-09-07,Lake Calhoun </br> 4.61%
Sep-01-2024 to Sep-07-2024,MN,Lake Minnetonka,3.6,44.91341,-93.6393,1101734,2024-09-01,2024-09-07,Lake Minnetonka </br> 3.6%
Sep-01-2024 to Sep-07-2024,TX,B A Steinhagen Lake,4.17,30.85543,-94.1948,1111211,2024-09-01,2024-09-07,B A Steinhagen Lake </br> 4.17%
Sep-01-2024 to Sep-07-2024,TX,Lake Sulphur Springs,8.43,33.17231,-95.629,1122789,2024-09-01,2024-09-07,Lake Sulphur Springs </br> 8.43%
Sep-01-2024 to Sep-07-2024,TX,Wright Patman Lake,56.41,33.27829,-94.2707,1127701,2024-09-01,2024-09-07,Wright Patman Lake </br> 56.41%
Sep-01-2024 to Sep-07-2024,TX,Goss Lake,4.43,33.27757,-94.0697,1127853,2024-09-01,2024-09-07,Goss Lake </br> 4.43%
Sep-01-2024 to Sep-07-2024,TX,River Crest Reservoir,94.74,33.39157,-95.1555,1128997,2024-09-01,2024-09-07,River Crest Reservoir </br> 94.74%
Sep-01-2024 to Sep-07-2024,LA,Black Bayou Lake,2.1,32.91292,-93.95,1135442,2024-09-01,2024-09-07,Black Bayou Lake </br> 2.1%
Sep-01-2024 to Sep-07-2024,TX,Lake Tyler,5.09,32.23912,-95.1512,1147787,2024-09-01,2024-09-07,Lake Tyler </br> 5.09%
Sep-01-2024 to Sep-07-2024,TX,Lake Striker,2.57,31.95969,-94.989,1148575,2024-09-01,2024-09-07,Lake Striker </br> 2.57%
Sep-01-2024 to Sep-07-2024,TX,Lake Nacogdoches,2.09,31.62249,-94.8184,1149471,2024-09-01,2024-09-07,Lake Nacogdoches </br> 2.09%
Sep-01-2024 to Sep-07-2024,TX,Ester Lake,3.62,31.21716,-94.2536,1158647,2024-09-01,2024-09-07,Ester Lake </br> 3.62%
Sep-01-2024 to Sep-07-2024,TX,Kurth Lake,8.22,31.44449,-94.691,1158651,2024-09-01,2024-09-07,Kurth Lake </br> 8.22%
Sep-01-2024 to Sep-07-2024,CO,Williams Fork Reservoir,2.8,40.01526,-106.21,1230577,2024-09-01,2024-09-07,Williams Fork Reservoir </br> 2.8%
Sep-01-2024 to Sep-07-2024,CO,Grand Lake,3.44,40.23162,-105.835,1233435,2024-09-01,2024-09-07,Grand Lake </br> 3.44%
Sep-01-2024 to Sep-07-2024,CO,Lake Granby,1.23,40.15546,-105.849,1233515,2024-09-01,2024-09-07,Lake Granby </br> 1.23%
Sep-01-2024 to Sep-07-2024,TX,White Rock Lake,25.35,32.83606,-96.7226,1259469,2024-09-01,2024-09-07,White Rock Lake </br> 25.35%
Sep-01-2024 to Sep-07-2024,TX,Trinidad Lake,95.96,32.1175,-96.0936,1262105,2024-09-01,2024-09-07,Trinidad Lake </br> 95.96%
Sep-01-2024 to Sep-07-2024,TX,Lake Worth,86.51,32.80908,-97.4615,1267710,2024-09-01,2024-09-07,Lake Worth </br> 86.51%
Sep-01-2024 to Sep-07-2024,TX,Lake Weatherford,95.06,32.78419,-97.6875,1267786,2024-09-01,2024-09-07,Lake Weatherford </br> 95.06%
Sep-01-2024 to Sep-07-2024,TX,Lake Arlington,79.3,32.70435,-97.2132,1267898,2024-09-01,2024-09-07,Lake Arlington </br> 79.3%
Sep-01-2024 to Sep-07-2024,TX,Benbrook Lake,38.67,32.62671,-97.4682,1267968,2024-09-01,2024-09-07,Benbrook Lake </br> 38.67%
Sep-01-2024 to Sep-07-2024,TX,Mountain Creek Lake,92.82,32.71806,-96.9614,1269548,2024-09-01,2024-09-07,Mountain Creek Lake </br> 92.82%
Sep-01-2024 to Sep-07-2024,TX,Lavon Lake,70.24,33.10404,-96.4712,1291638,2024-09-01,2024-09-07,Lavon Lake </br> 70.24%
Sep-01-2024 to Sep-07-2024,TX,New Terrell City Lake,89.1,32.74228,-96.1728,1296744,2024-09-01,2024-09-07,New Terrell City Lake </br> 89.1%
Sep-01-2024 to Sep-07-2024,TX,Lake Bridgeport,2.9,33.21846,-97.8659,1304891,2024-09-01,2024-09-07,Lake Bridgeport </br> 2.9%
Sep-01-2024 to Sep-07-2024,CO,Green Mountain Reservoir,3.15,39.87126,-106.285,1311881,2024-09-01,2024-09-07,Green Mountain Reservoir </br> 3.15%
Sep-01-2024 to Sep-07-2024,CO,Dillon Reservoir,3.91,39.60147,-106.058,1312051,2024-09-01,2024-09-07,Dillon Reservoir </br> 3.91%
Sep-01-2024 to Sep-07-2024,CO,Taylor Park Reservoir,3.07,38.83539,-106.58,1332558,2024-09-01,2024-09-07,Taylor Park Reservoir </br> 3.07%
Sep-01-2024 to Sep-07-2024,CO,Steamboat Lake,34.21,40.79592,-106.965,1353298,2024-09-01,2024-09-07,Steamboat Lake </br> 34.21%
Sep-01-2024 to Sep-07-2024,UT,Pelican Lake,2.74,40.19259,-109.682,1371518,2024-09-01,2024-09-07,Pelican Lake </br> 2.74%
Sep-01-2024 to Sep-07-2024,AZ,Many Farms Lake,10.47,36.35332,-109.583,1408803,2024-09-01,2024-09-07,Many Farms Lake </br> 10.47%
Sep-01-2024 to Sep-07-2024,TX,Bardwell Lake,89.91,32.28141,-96.6641,1445978,2024-09-01,2024-09-07,Bardwell Lake </br> 89.91%
Sep-01-2024 to Sep-07-2024,TX,Fairfield Lake,9.08,31.79518,-96.062,1454297,2024-09-01,2024-09-07,Fairfield Lake </br> 9.08%
Sep-01-2024 to Sep-07-2024,TX,Houston County Lake,8.53,31.41438,-95.5776,1455553,2024-09-01,2024-09-07,Houston County Lake </br> 8.53%
Sep-01-2024 to Sep-07-2024,TX,Lewis Creek Reservoir,1.88,30.43564,-95.5352,1466524,2024-09-01,2024-09-07,Lewis Creek Reservoir </br> 1.88%
Sep-01-2024 to Sep-07-2024,TX,Sabine Lake,68.67,29.89961,-93.8889,1475947,2024-09-01,2024-09-07,Sabine Lake </br> 68.67%
Sep-01-2024 to Sep-07-2024,TX,Knight Lake,18.81,29.70597,-93.9862,1476649,2024-09-01,2024-09-07,Knight Lake </br> 18.81%
Sep-01-2024 to Sep-07-2024,TX,Sabine Lake,1.78,29.88602,-93.8433,1477365,2024-09-01,2024-09-07,Sabine Lake </br> 1.78%
Sep-01-2024 to Sep-07-2024,TX,Clam Lake,2.57,29.68687,-94.0986,1478803,2024-09-01,2024-09-07,Clam Lake </br> 2.57%
Sep-01-2024 to Sep-07-2024,TX,Woodlands Golf Course Lake,16.75,30.7671,-95.1656,1492358,2024-09-01,2024-09-07,Woodlands Golf Course Lake </br> 16.75%
Sep-01-2024 to Sep-07-2024,TX,Lake Charlotte,89.16,29.868,-94.7257,1514105,2024-09-01,2024-09-07,Lake Charlotte </br> 89.16%
Sep-01-2024 to Sep-07-2024,TX,Lost Lake,74.67,29.85921,-94.7835,1514129,2024-09-01,2024-09-07,Lost Lake </br> 74.67%
Sep-01-2024 to Sep-07-2024,TX,Lake Anahuac,86.04,29.80275,-94.684,1514219,2024-09-01,2024-09-07,Lake Anahuac </br> 86.04%
Sep-01-2024 to Sep-07-2024,TX,Cotton Lake,88.81,29.79816,-94.8073,1514331,2024-09-01,2024-09-07,Cotton Lake </br> 88.81%
Sep-01-2024 to Sep-07-2024,TX,Wet Marsh Pond,6.16,29.77277,-94.8163,1514367,2024-09-01,2024-09-07,Wet Marsh Pond </br> 6.16%
Sep-01-2024 to Sep-07-2024,TX,Robinson Lake,58.54,29.58477,-94.5971,1523391,2024-09-01,2024-09-07,Robinson Lake </br> 58.54%
Sep-01-2024 to Sep-07-2024,TX,Lake Surprise,95.31,29.55322,-94.6808,1523509,2024-09-01,2024-09-07,Lake Surprise </br> 95.31%
Sep-01-2024 to Sep-07-2024,CO,Lake Pueblo,2.23,38.26593,-104.753,1531545,2024-09-01,2024-09-07,Lake Pueblo </br> 2.23%
Sep-01-2024 to Sep-07-2024,TX,Clear Lake,73.62,29.55251,-95.061,1562034,2024-09-01,2024-09-07,Clear Lake </br> 73.62%
Sep-01-2024 to Sep-07-2024,TX,Galveston County Industrial Water Reservoir,25.52,29.4387,-94.9747,1573030,2024-09-01,2024-09-07,Galveston County Industrial Water Reservoir </br> 25.52%
Sep-01-2024 to Sep-07-2024,TX,Oyster Lake,2.27,29.12179,-95.1749,1573668,2024-09-01,2024-09-07,Oyster Lake </br> 2.27%
Sep-01-2024 to Sep-07-2024,TX,Salt Lake,4.68,29.03822,-95.2555,1573900,2024-09-01,2024-09-07,Salt Lake </br> 4.68%
Sep-01-2024 to Sep-07-2024,CO,Adobe Creek Reservoir,71.14,38.26192,-103.246,1593551,2024-09-01,2024-09-07,Adobe Creek Reservoir </br> 71.14%
Sep-01-2024 to Sep-07-2024,CO,Neegronda Reservoir,28.16,38.30302,-102.755,1594371,2024-09-01,2024-09-07,Neegronda Reservoir </br> 28.16%
Sep-01-2024 to Sep-07-2024,CO,Queen Reservoir,88.32,38.29501,-102.65,1594373,2024-09-01,2024-09-07,Queen Reservoir </br> 88.32%
Sep-01-2024 to Sep-07-2024,TX,Cowtrap Lake,9.46,28.85446,-95.5224,1613786,2024-09-01,2024-09-07,Cowtrap Lake </br> 9.46%
Sep-01-2024 to Sep-07-2024,TX,Lake Austin,57.31,28.7926,-95.7929,1613898,2024-09-01,2024-09-07,Lake Austin </br> 57.31%
Sep-01-2024 to Sep-07-2024,ME,Rowe Pond,1.59,46.20594,-69.6062,1698272,2024-09-01,2024-09-07,Rowe Pond </br> 1.59%
Sep-01-2024 to Sep-07-2024,ME,Shallow Lake,69.57,46.22598,-69.4799,1698278,2024-09-01,2024-09-07,Shallow Lake </br> 69.57%
Sep-01-2024 to Sep-07-2024,ME,Umbbazooksus Lake,1.22,46.16857,-69.3775,1698316,2024-09-01,2024-09-07,Umbbazooksus Lake </br> 1.22%
Sep-01-2024 to Sep-07-2024,ME,Loon Lake,2.86,46.14701,-69.6392,1698322,2024-09-01,2024-09-07,Loon Lake </br> 2.86%
Sep-01-2024 to Sep-07-2024,ME,Longley Pond,1.85,46.16018,-69.4388,1698326,2024-09-01,2024-09-07,Longley Pond </br> 1.85%
Sep-01-2024 to Sep-07-2024,ME,Nesowadnehunk Lake,1.5,46.04055,-69.096,1698422,2024-09-01,2024-09-07,Nesowadnehunk Lake </br> 1.5%
Sep-01-2024 to Sep-07-2024,ME,Millinocket Lake,1.32,45.75953,-68.7944,1699384,2024-09-01,2024-09-07,Millinocket Lake </br> 1.32%
Sep-01-2024 to Sep-07-2024,ME,Dolby Pond,1.44,45.65227,-68.6306,1699482,2024-09-01,2024-09-07,Dolby Pond </br> 1.44%
Sep-01-2024 to Sep-07-2024,ME,Upper Jo-Mary Lake,0.94,45.60065,-68.962,1699556,2024-09-01,2024-09-07,Upper Jo-Mary Lake </br> 0.94%
Sep-01-2024 to Sep-07-2024,ME,Mud Pond,1.44,45.96272,-69.2872,1700848,2024-09-01,2024-09-07,Mud Pond </br> 1.44%
Sep-01-2024 to Sep-07-2024,ME,Harrington Lake,1.4,45.93605,-69.1621,1700856,2024-09-01,2024-09-07,Harrington Lake </br> 1.4%
Sep-01-2024 to Sep-07-2024,ME,Seboomook Lake,3.39,45.91353,-69.848,1700864,2024-09-01,2024-09-07,Seboomook Lake </br> 3.39%
Sep-01-2024 to Sep-07-2024,ME,Lobster Lake,1.28,45.85474,-69.5238,1700982,2024-09-01,2024-09-07,Lobster Lake </br> 1.28%
Sep-01-2024 to Sep-07-2024,ME,Ragged Lake,1.48,45.82058,-69.3758,1701002,2024-09-01,2024-09-07,Ragged Lake </br> 1.48%
Sep-01-2024 to Sep-07-2024,ME,Rainbow Lake,2.01,45.82396,-69.1166,1701038,2024-09-01,2024-09-07,Rainbow Lake </br> 2.01%
Sep-01-2024 to Sep-07-2024,ME,Third Debsconeag Lake,0.68,45.75816,-69.0303,1701156,2024-09-01,2024-09-07,Third Debsconeag Lake </br> 0.68%
Sep-01-2024 to Sep-07-2024,ME,Grand Lake Seboeis,0.83,46.29646,-68.6503,1710508,2024-09-01,2024-09-07,Grand Lake Seboeis </br> 0.83%
Sep-01-2024 to Sep-07-2024,ME,Snowshoe Lake,1.95,46.25112,-68.6305,1710524,2024-09-01,2024-09-07,Snowshoe Lake </br> 1.95%
Sep-01-2024 to Sep-07-2024,ME,Scraggly Lake,0.73,46.23972,-68.7559,1710542,2024-09-01,2024-09-07,Scraggly Lake </br> 0.73%
Sep-01-2024 to Sep-07-2024,ME,Upper Shin Pond,7.87,46.11806,-68.5386,1710670,2024-09-01,2024-09-07,Upper Shin Pond </br> 7.87%
Sep-01-2024 to Sep-07-2024,ME,Lower Shin Pond,3.58,46.09072,-68.5675,1710720,2024-09-01,2024-09-07,Lower Shin Pond </br> 3.58%
Sep-01-2024 to Sep-07-2024,ME,First Lake,1.38,46.1773,-68.8288,1711354,2024-09-01,2024-09-07,First Lake </br> 1.38%
Sep-01-2024 to Sep-07-2024,ME,Allagash Lake,1.56,46.3203,-69.528,1711940,2024-09-01,2024-09-07,Allagash Lake </br> 1.56%
Sep-01-2024 to Sep-07-2024,ME,Chamberlain Lake,0.6,46.21892,-69.2799,1711958,2024-09-01,2024-09-07,Chamberlain Lake </br> 0.6%
Sep-01-2024 to Sep-07-2024,ME,Mud Pond,1.05,46.17923,-69.3144,1712020,2024-09-01,2024-09-07,Mud Pond </br> 1.05%
Sep-01-2024 to Sep-07-2024,ME,Katahdin Lake,9.49,45.92457,-68.7936,1712532,2024-09-01,2024-09-07,Katahdin Lake </br> 9.49%
Sep-01-2024 to Sep-07-2024,ME,East Branch Lake,2.56,45.5188,-68.7342,1717737,2024-09-01,2024-09-07,East Branch Lake </br> 2.56%
Sep-01-2024 to Sep-07-2024,ME,B Pond,2.27,45.57041,-69.1313,1718135,2024-09-01,2024-09-07,B Pond </br> 2.27%
Sep-01-2024 to Sep-07-2024,ME,Schoodic Lake,1.63,45.37282,-68.9241,1718667,2024-09-01,2024-09-07,Schoodic Lake </br> 1.63%
Sep-01-2024 to Sep-07-2024,ME,Sebec Lake,3.22,45.27684,-69.2764,1720371,2024-09-01,2024-09-07,Sebec Lake </br> 3.22%
Sep-01-2024 to Sep-07-2024,ME,Bald Mountain Pond,2.7,45.25961,-69.7292,1720391,2024-09-01,2024-09-07,Bald Mountain Pond </br> 2.7%
Sep-01-2024 to Sep-07-2024,ME,Salmon Stream Lake,2.63,45.72682,-68.486,1730906,2024-09-01,2024-09-07,Salmon Stream Lake </br> 2.63%
Sep-01-2024 to Sep-07-2024,ME,South Branch Lake,1.26,45.38497,-68.6837,1731562,2024-09-01,2024-09-07,South Branch Lake </br> 1.26%
Sep-01-2024 to Sep-07-2024,ME,Upper Pond,1.2,45.32197,-68.4171,1731638,2024-09-01,2024-09-07,Upper Pond </br> 1.2%
Sep-01-2024 to Sep-07-2024,ME,Madagascal Pond,2.08,45.2961,-68.3479,1731682,2024-09-01,2024-09-07,Madagascal Pond </br> 2.08%
Sep-01-2024 to Sep-07-2024,ME,Cold Stream Pond,1.05,45.26243,-68.5372,1731700,2024-09-01,2024-09-07,Cold Stream Pond </br> 1.05%
Sep-01-2024 to Sep-07-2024,ME,Escutasia Lake,2.76,45.25357,-68.4548,1731730,2024-09-01,2024-09-07,Escutasia Lake </br> 2.76%
Sep-01-2024 to Sep-07-2024,ME,Lower Pistol Lake,2.86,45.189,-68.2163,1731784,2024-09-01,2024-09-07,Lower Pistol Lake </br> 2.86%
Sep-01-2024 to Sep-07-2024,ME,Boyd Lake,3.78,45.17769,-68.9214,1731800,2024-09-01,2024-09-07,Boyd Lake </br> 3.78%
Sep-01-2024 to Sep-07-2024,ME,Saponac Pond,4.43,45.17463,-68.3827,1731806,2024-09-01,2024-09-07,Saponac Pond </br> 4.43%
Sep-01-2024 to Sep-07-2024,ME,Duck Lake,2.16,45.15031,-68.0987,1731832,2024-09-01,2024-09-07,Duck Lake </br> 2.16%
Sep-01-2024 to Sep-07-2024,ME,Nicatous Lake,1.44,45.08184,-68.1502,1731850,2024-09-01,2024-09-07,Nicatous Lake </br> 1.44%
Sep-01-2024 to Sep-07-2024,ME,Abarngamook Lake,1.71,45.11319,-68.1973,1731864,2024-09-01,2024-09-07,Abarngamook Lake </br> 1.71%
Sep-01-2024 to Sep-07-2024,ME,Pushaw Lake,1.72,44.93317,-68.801,1734984,2024-09-01,2024-09-07,Pushaw Lake </br> 1.72%
Sep-01-2024 to Sep-07-2024,ME,Chemo Pond,3.44,44.82346,-68.5732,1735158,2024-09-01,2024-09-07,Chemo Pond </br> 3.44%
Sep-01-2024 to Sep-07-2024,ME,Brewer Lake,8.7,44.71002,-68.7264,1735266,2024-09-01,2024-09-07,Brewer Lake </br> 8.7%
Sep-01-2024 to Sep-07-2024,ME,Alamoosook Lake,1.59,44.58323,-68.7005,1735412,2024-09-01,2024-09-07,Alamoosook Lake </br> 1.59%
Sep-01-2024 to Sep-07-2024,NY,Pepacton Reservoir,3.35,42.08827,-74.8707,1748473,2024-09-01,2024-09-07,Pepacton Reservoir </br> 3.35%
Sep-01-2024 to Sep-07-2024,MN,Whiteface Reservoir,8.51,47.30383,-92.168,1768752,2024-09-01,2024-09-07,Whiteface Reservoir </br> 8.51%
Sep-01-2024 to Sep-07-2024,MN,Boulder Lake Reservoir,33.37,47.06413,-92.1725,1791863,2024-09-01,2024-09-07,Boulder Lake Reservoir </br> 33.37%
Sep-01-2024 to Sep-07-2024,MN,Island Lake Reservoir,3.32,46.99183,-92.2079,1792677,2024-09-01,2024-09-07,Island Lake Reservoir </br> 3.32%
Sep-01-2024 to Sep-07-2024,MN,Fish Lake Reservoir,46.92,46.94337,-92.2742,1792789,2024-09-01,2024-09-07,Fish Lake Reservoir </br> 46.92%
Sep-01-2024 to Sep-07-2024,MN,Grand Lake,1.82,46.87557,-92.404,1792897,2024-09-01,2024-09-07,Grand Lake </br> 1.82%
Sep-01-2024 to Sep-07-2024,MN,Wild Rice Lake Reservoir,13.69,46.89112,-92.1855,1793523,2024-09-01,2024-09-07,Wild Rice Lake Reservoir </br> 13.69%
Sep-01-2024 to Sep-07-2024,WI,Gile Flowage 70,2.65,46.39828,-90.2275,1813525,2024-09-01,2024-09-07,Gile Flowage 70 </br> 2.65%
Sep-01-2024 to Sep-07-2024,WI,Namakagon Lake,16.46,46.22287,-91.1044,1849501,2024-09-01,2024-09-07,Namakagon Lake </br> 16.46%
Sep-01-2024 to Sep-07-2024,WI,Bardon Lake,2.26,46.21378,-91.8722,1849589,2024-09-01,2024-09-07,Bardon Lake </br> 2.26%
Sep-01-2024 to Sep-07-2024,WI,Nelson Lake,33.42,46.09326,-91.4711,1849955,2024-09-01,2024-09-07,Nelson Lake </br> 33.42%
Sep-01-2024 to Sep-07-2024,WI,Middle McKenzie Lake,2.58,45.94333,-92.0409,1855289,2024-09-01,2024-09-07,Middle McKenzie Lake </br> 2.58%
Sep-01-2024 to Sep-07-2024,WI,McKenzie Lake,6.5,45.9184,-92.0386,1855411,2024-09-01,2024-09-07,McKenzie Lake </br> 6.5%
Sep-01-2024 to Sep-07-2024,MN,Sturgeon Lake/North Lake,6.46,44.65671,-92.6728,1873471,2024-09-01,2024-09-07,Sturgeon Lake/North Lake </br> 6.46%
Sep-01-2024 to Sep-07-2024,WI,Lake Pepin,2.02,44.55076,-92.3653,1874843,2024-09-01,2024-09-07,Lake Pepin </br> 2.02%
Sep-01-2024 to Sep-07-2024,CA,Clifton Court Forebay,7.49,37.83848,-121.576,1890272,2024-09-01,2024-09-07,Clifton Court Forebay </br> 7.49%
Sep-01-2024 to Sep-07-2024,NC,Pungo Lake,2.74,35.71407,-76.5507,1966751,2024-09-01,2024-09-07,Pungo Lake </br> 2.74%
Sep-01-2024 to Sep-07-2024,MN,Mazaska Lake,85.58,44.3725,-93.3961,2031719,2024-09-01,2024-09-07,Mazaska Lake </br> 85.58%
Sep-01-2024 to Sep-07-2024,MN,Shields Lake,75.24,44.36981,-93.4414,2031725,2024-09-01,2024-09-07,Shields Lake </br> 75.24%
Sep-01-2024 to Sep-07-2024,MN,Lake Dora,70.38,44.35374,-93.5819,2031749,2024-09-01,2024-09-07,Lake Dora </br> 70.38%
Sep-01-2024 to Sep-07-2024,MN,Gorman Lake,78.59,44.34137,-93.6619,2031773,2024-09-01,2024-09-07,Gorman Lake </br> 78.59%
Sep-01-2024 to Sep-07-2024,MN,French Lake,84.82,44.33881,-93.3917,2031777,2024-09-01,2024-09-07,French Lake </br> 84.82%
Sep-01-2024 to Sep-07-2024,MN,Roberds Lake,80.65,44.32745,-93.3453,2031815,2024-09-01,2024-09-07,Roberds Lake </br> 80.65%
Sep-01-2024 to Sep-07-2024,MN,German Lake,73.73,44.27479,-93.7264,2031943,2024-09-01,2024-09-07,German Lake </br> 73.73%
Sep-01-2024 to Sep-07-2024,MN,Cannon Lake,59.59,44.2661,-93.358,2031955,2024-09-01,2024-09-07,Cannon Lake </br> 59.59%
Sep-01-2024 to Sep-07-2024,MN,Sakatah Lake,80.74,44.22958,-93.5284,2032039,2024-09-01,2024-09-07,Sakatah Lake </br> 80.74%
Sep-01-2024 to Sep-07-2024,MN,Tetonka Lake,80.61,44.23048,-93.6077,2032055,2024-09-01,2024-09-07,Tetonka Lake </br> 80.61%
Sep-01-2024 to Sep-07-2024,MN,Lake Francis,27.68,44.21036,-93.7034,2032117,2024-09-01,2024-09-07,Lake Francis </br> 27.68%
Sep-01-2024 to Sep-07-2024,MN,Clear Lake,66.2,44.08701,-93.4846,2032351,2024-09-01,2024-09-07,Clear Lake </br> 66.2%
Sep-01-2024 to Sep-07-2024,GA,Woodmen Youth Camp Lake,3.06,34.29151,-83.921,2043487,2024-09-01,2024-09-07,Woodmen Youth Camp Lake </br> 3.06%
Sep-01-2024 to Sep-07-2024,GA,Lake Sidney Lanier,2.08,34.17384,-84.0331,2045165,2024-09-01,2024-09-07,Lake Sidney Lanier </br> 2.08%
Sep-01-2024 to Sep-07-2024,FL,Cherry Lake,3.02,30.6149,-83.4148,2066026,2024-09-01,2024-09-07,Cherry Lake </br> 3.02%
Sep-01-2024 to Sep-07-2024,FL,Dead Lakes,4.11,30.18523,-85.1843,2134810,2024-09-01,2024-09-07,Dead Lakes </br> 4.11%
Sep-01-2024 to Sep-07-2024,FL,Santa Fe Lake,8.36,29.74296,-82.0788,2161664,2024-09-01,2024-09-07,Santa Fe Lake </br> 8.36%
Sep-01-2024 to Sep-07-2024,FL,Compass Lake,2.98,30.59624,-85.3844,2176781,2024-09-01,2024-09-07,Compass Lake </br> 2.98%
Sep-01-2024 to Sep-07-2024,FL,Pate Lake,5.11,30.69318,-85.7408,2241295,2024-09-01,2024-09-07,Pate Lake </br> 5.11%
Sep-01-2024 to Sep-07-2024,FL,Big Blue Lake,3.23,30.46804,-85.7437,2243757,2024-09-01,2024-09-07,Big Blue Lake </br> 3.23%
Sep-01-2024 to Sep-07-2024,WI,Upper Eau Claire Lake,1.25,46.3103,-91.4779,2260889,2024-09-01,2024-09-07,Upper Eau Claire Lake </br> 1.25%
Sep-01-2024 to Sep-07-2024,WI,Lower Eau Claire Lake,1.8,46.27303,-91.5512,2260969,2024-09-01,2024-09-07,Lower Eau Claire Lake </br> 1.8%
Sep-01-2024 to Sep-07-2024,WI,Saint Croix Flowage 282,1.32,46.25587,-91.8696,2260997,2024-09-01,2024-09-07,Saint Croix Flowage 282 </br> 1.32%
Sep-01-2024 to Sep-07-2024,WI,Spooner Lake 20,1.67,45.8399,-91.825,2264087,2024-09-01,2024-09-07,Spooner Lake 20 </br> 1.67%
Sep-01-2024 to Sep-07-2024,WI,Shell Lake,12.13,45.73413,-91.8996,2264553,2024-09-01,2024-09-07,Shell Lake </br> 12.13%
Sep-01-2024 to Sep-07-2024,WI,Yellow Lake,38.57,45.92035,-92.4025,2266141,2024-09-01,2024-09-07,Yellow Lake </br> 38.57%
Sep-01-2024 to Sep-07-2024,WI,Sand Lake,0.98,45.91829,-92.1732,2266151,2024-09-01,2024-09-07,Sand Lake </br> 0.98%
Sep-01-2024 to Sep-07-2024,WI,Devils Lake,1.69,45.90937,-92.3379,2266211,2024-09-01,2024-09-07,Devils Lake </br> 1.69%
Sep-01-2024 to Sep-07-2024,WI,Big Sand Lake,1.21,45.8247,-92.2195,2266515,2024-09-01,2024-09-07,Big Sand Lake </br> 1.21%
Sep-01-2024 to Sep-07-2024,WI,Clam Lake,24.58,45.79311,-92.3254,2266571,2024-09-01,2024-09-07,Clam Lake </br> 24.58%
Sep-01-2024 to Sep-07-2024,KS,Tuttle Creek Lake,1.31,39.38517,-96.687,2277833,2024-09-01,2024-09-07,Tuttle Creek Lake </br> 1.31%
Sep-01-2024 to Sep-07-2024,FL,Lake Wimico,2.68,29.80136,-85.1476,2298144,2024-09-01,2024-09-07,Lake Wimico </br> 2.68%
Sep-01-2024 to Sep-07-2024,MO,Montrose Lake,55.47,38.30629,-93.9478,2332715,2024-09-01,2024-09-07,Montrose Lake </br> 55.47%
Sep-01-2024 to Sep-07-2024,MN,Lake Independence,73.07,45.02971,-93.6497,2349188,2024-09-01,2024-09-07,Lake Independence </br> 73.07%
Sep-01-2024 to Sep-07-2024,MN,Mennetaga Lake,61.35,45.08061,-94.8656,2350664,2024-09-01,2024-09-07,Mennetaga Lake </br> 61.35%
Sep-01-2024 to Sep-07-2024,MN,Lake Elizabeth,46.12,45.06438,-94.8018,2350742,2024-09-01,2024-09-07,Lake Elizabeth </br> 46.12%
Sep-01-2024 to Sep-07-2024,MN,King Lake,74.46,45.01491,-94.6442,2350916,2024-09-01,2024-09-07,King Lake </br> 74.46%
Sep-01-2024 to Sep-07-2024,MN,Belle Lake,67.27,44.98163,-94.4269,2354124,2024-09-01,2024-09-07,Belle Lake </br> 67.27%
Sep-01-2024 to Sep-07-2024,MN,Cedar Lake,75.97,44.97503,-94.4637,2354136,2024-09-01,2024-09-07,Cedar Lake </br> 75.97%
Sep-01-2024 to Sep-07-2024,MN,Lake Lillian,50.05,44.96406,-94.8753,2354176,2024-09-01,2024-09-07,Lake Lillian </br> 50.05%
Sep-01-2024 to Sep-07-2024,MN,Preston Lake,72.54,44.78278,-94.5383,2354424,2024-09-01,2024-09-07,Preston Lake </br> 72.54%
Sep-01-2024 to Sep-07-2024,MN,Mille Lacs Lake,2.96,46.24245,-93.6462,2360642,2024-09-01,2024-09-07,Mille Lacs Lake </br> 2.96%
Sep-01-2024 to Sep-07-2024,MN,Round Lake,1.1,46.33448,-93.8053,2360694,2024-09-01,2024-09-07,Round Lake </br> 1.1%
Sep-01-2024 to Sep-07-2024,MN,Borden Lake,0.93,46.30472,-93.8548,2360752,2024-09-01,2024-09-07,Borden Lake </br> 0.93%
Sep-01-2024 to Sep-07-2024,MN,Shakopee Lake,10.66,46.1077,-93.7199,2361124,2024-09-01,2024-09-07,Shakopee Lake </br> 10.66%
Sep-01-2024 to Sep-07-2024,MN,Green Lake,74.92,45.57343,-93.4399,2362366,2024-09-01,2024-09-07,Green Lake </br> 74.92%
Sep-01-2024 to Sep-07-2024,MN,Lake George,1.66,45.3567,-93.3355,2365854,2024-09-01,2024-09-07,Lake George </br> 1.66%
Sep-01-2024 to Sep-07-2024,MN,Lake Waconia,36.56,44.86862,-93.7843,2384576,2024-09-01,2024-09-07,Lake Waconia </br> 36.56%
Sep-01-2024 to Sep-07-2024,MN,Silver Lake,94.17,44.61842,-93.9734,2385692,2024-09-01,2024-09-07,Silver Lake </br> 94.17%
Sep-01-2024 to Sep-07-2024,MN,Cedar Lake,72.69,44.58995,-93.5236,2385742,2024-09-01,2024-09-07,Cedar Lake </br> 72.69%
Sep-01-2024 to Sep-07-2024,MN,High Island Lake,61.19,44.66668,-94.2098,2387652,2024-09-01,2024-09-07,High Island Lake </br> 61.19%
Sep-01-2024 to Sep-07-2024,SD,Grass Lake,88.02,45.07183,-97.3835,2481890,2024-09-01,2024-09-07,Grass Lake </br> 88.02%
Sep-01-2024 to Sep-07-2024,SD,Lake Nicholson,69.47,45.0203,-97.3743,2482648,2024-09-01,2024-09-07,Lake Nicholson </br> 69.47%
Sep-01-2024 to Sep-07-2024,SD,Long Lake,67.29,44.9477,-97.3986,2483484,2024-09-01,2024-09-07,Long Lake </br> 67.29%
Sep-01-2024 to Sep-07-2024,SD,Clear Lake,51.7,44.76685,-97.1761,2484610,2024-09-01,2024-09-07,Clear Lake </br> 51.7%
Sep-01-2024 to Sep-07-2024,SD,Lake Marsh,90.4,44.64681,-97.2443,2485168,2024-09-01,2024-09-07,Lake Marsh </br> 90.4%
Sep-01-2024 to Sep-07-2024,SD,Lake Norden,63.58,44.59546,-97.1985,2485342,2024-09-01,2024-09-07,Lake Norden </br> 63.58%
Sep-01-2024 to Sep-07-2024,SD,Lake Saint John,72.91,44.56533,-97.1878,2485460,2024-09-01,2024-09-07,Lake Saint John </br> 72.91%
Sep-01-2024 to Sep-07-2024,SD,Lake Badger,90.89,44.46198,-97.1767,2486908,2024-09-01,2024-09-07,Lake Badger </br> 90.89%
Sep-01-2024 to Sep-07-2024,MO,Trimble Wildlife Lake,45.77,39.43361,-94.5175,2529647,2024-09-01,2024-09-07,Trimble Wildlife Lake </br> 45.77%
Sep-01-2024 to Sep-07-2024,OR,Gerber Reservoir,33.41,42.19832,-121.103,2551255,2024-09-01,2024-09-07,Gerber Reservoir </br> 33.41%
Sep-01-2024 to Sep-07-2024,OR,Alkali Lake,77.73,42.20581,-121.483,2551259,2024-09-01,2024-09-07,Alkali Lake </br> 77.73%
Sep-01-2024 to Sep-07-2024,CA,Indian Tom Lake,3.63,41.99178,-121.878,2554839,2024-09-01,2024-09-07,Indian Tom Lake </br> 3.63%
Sep-01-2024 to Sep-07-2024,CA,Tule Lake,71.53,41.90581,-121.526,2554943,2024-09-01,2024-09-07,Tule Lake </br> 71.53%
Sep-01-2024 to Sep-07-2024,CA,Clear Lake Reservoir,7.17,41.86582,-121.147,2554957,2024-09-01,2024-09-07,Clear Lake Reservoir </br> 7.17%
Sep-01-2024 to Sep-07-2024,TX,Belton Lake,2.28,31.17064,-97.5083,2571688,2024-09-01,2024-09-07,Belton Lake </br> 2.28%
Sep-01-2024 to Sep-07-2024,NJ,Lake Hopatcong,4.76,40.9439,-74.6422,2585287,2024-09-01,2024-09-07,Lake Hopatcong </br> 4.76%
Sep-01-2024 to Sep-07-2024,NY,Cannonsville Reservoir,3.15,42.09652,-75.303,2613174,2024-09-01,2024-09-07,Cannonsville Reservoir </br> 3.15%
Sep-01-2024 to Sep-07-2024,MN,Sturgeon Lake,3.48,46.37903,-92.7572,2628516,2024-09-01,2024-09-07,Sturgeon Lake </br> 3.48%
Sep-01-2024 to Sep-07-2024,MN,Pokegama Lake,81.28,45.8451,-93.0405,2639444,2024-09-01,2024-09-07,Pokegama Lake </br> 81.28%
Sep-01-2024 to Sep-07-2024,WI,Bona Lake,39.21,45.53489,-92.3894,2644120,2024-09-01,2024-09-07,Bona Lake </br> 39.21%
Sep-01-2024 to Sep-07-2024,WI,Big Round Lake,57.08,45.52444,-92.3014,2644214,2024-09-01,2024-09-07,Big Round Lake </br> 57.08%
Sep-01-2024 to Sep-07-2024,MN,West Rush Lake,79.48,45.68854,-93.0858,2645822,2024-09-01,2024-09-07,West Rush Lake </br> 79.48%
Sep-01-2024 to Sep-07-2024,MN,Rush Lake,77.12,45.68769,-93.0499,2645826,2024-09-01,2024-09-07,Rush Lake </br> 77.12%
Sep-01-2024 to Sep-07-2024,MN,Sunrise Lake,35.01,45.42785,-92.8651,2646558,2024-09-01,2024-09-07,Sunrise Lake </br> 35.01%
Sep-01-2024 to Sep-07-2024,MN,Chisago Lake,56.5,45.3692,-92.8668,2646746,2024-09-01,2024-09-07,Chisago Lake </br> 56.5%
Sep-01-2024 to Sep-07-2024,MN,Green Lake,33.59,45.34337,-92.8994,2646854,2024-09-01,2024-09-07,Green Lake </br> 33.59%
Sep-01-2024 to Sep-07-2024,WI,Wapogasset Lake,50.06,45.32847,-92.4258,2646860,2024-09-01,2024-09-07,Wapogasset Lake </br> 50.06%
Sep-01-2024 to Sep-07-2024,MN,Forest Lake,5.79,45.2736,-92.9489,2647106,2024-09-01,2024-09-07,Forest Lake </br> 5.79%
Sep-01-2024 to Sep-07-2024,MN,Big Marine Lake,1.41,45.21975,-92.8598,2647268,2024-09-01,2024-09-07,Big Marine Lake </br> 1.41%
Sep-01-2024 to Sep-07-2024,WI,Cedar Lake,41.98,45.2143,-92.572,2647328,2024-09-01,2024-09-07,Cedar Lake </br> 41.98%
Sep-01-2024 to Sep-07-2024,MN,Linwood Lake,69.02,45.35152,-93.1077,2650216,2024-09-01,2024-09-07,Linwood Lake </br> 69.02%
Sep-01-2024 to Sep-07-2024,ME,Pocomoonshine Lake,1.06,45.14267,-67.54,2673214,2024-09-01,2024-09-07,Pocomoonshine Lake </br> 1.06%
Sep-01-2024 to Sep-07-2024,ME,Third Machias Lake,4.96,45.11863,-67.89,2673234,2024-09-01,2024-09-07,Third Machias Lake </br> 4.96%
Sep-01-2024 to Sep-07-2024,ME,Meddybemps Lake,1.13,45.07258,-67.3811,2673290,2024-09-01,2024-09-07,Meddybemps Lake </br> 1.13%
Sep-01-2024 to Sep-07-2024,ME,Crawford Lake,2.83,45.05407,-67.5759,2673344,2024-09-01,2024-09-07,Crawford Lake </br> 2.83%
Sep-01-2024 to Sep-07-2024,ME,Fifth Machias Lake,1.61,45.03968,-67.9775,2673400,2024-09-01,2024-09-07,Fifth Machias Lake </br> 1.61%
Sep-01-2024 to Sep-07-2024,ME,Round Lake,0.82,45.01981,-67.2679,2673426,2024-09-01,2024-09-07,Round Lake </br> 0.82%
Sep-01-2024 to Sep-07-2024,ME,Upper Sabao Lake,6.32,45.05077,-68.0805,2674752,2024-09-01,2024-09-07,Upper Sabao Lake </br> 6.32%
Sep-01-2024 to Sep-07-2024,ME,Brandy Pond,1.65,45.03618,-68.2691,2674760,2024-09-01,2024-09-07,Brandy Pond </br> 1.65%
Sep-01-2024 to Sep-07-2024,ME,Lake Cathance,0.72,44.94956,-67.4109,2675496,2024-09-01,2024-09-07,Lake Cathance </br> 0.72%
Sep-01-2024 to Sep-07-2024,ME,Rocky Lake,1.76,44.8639,-67.4579,2675594,2024-09-01,2024-09-07,Rocky Lake </br> 1.76%
Sep-01-2024 to Sep-07-2024,ME,Gardner Lake,1.09,44.78893,-67.3569,2675654,2024-09-01,2024-09-07,Gardner Lake </br> 1.09%
Sep-01-2024 to Sep-07-2024,ME,Hadley Lake,1.1,44.78022,-67.4429,2675732,2024-09-01,2024-09-07,Hadley Lake </br> 1.1%
Sep-01-2024 to Sep-07-2024,ME,Upper Lead Mountain Pond,2.66,44.85209,-68.1393,2678912,2024-09-01,2024-09-07,Upper Lead Mountain Pond </br> 2.66%
Sep-01-2024 to Sep-07-2024,ME,Spectacle Pond,2.08,44.75928,-68.2129,2678970,2024-09-01,2024-09-07,Spectacle Pond </br> 2.08%
Sep-01-2024 to Sep-07-2024,ME,Graham Lake,0.59,44.65687,-68.3978,2678978,2024-09-01,2024-09-07,Graham Lake </br> 0.59%
Sep-01-2024 to Sep-07-2024,ME,Beech Hill Pond,0.85,44.68968,-68.4559,2679020,2024-09-01,2024-09-07,Beech Hill Pond </br> 0.85%
Sep-01-2024 to Sep-07-2024,ME,Molasses Pond,0.8,44.67615,-68.2174,2679030,2024-09-01,2024-09-07,Molasses Pond </br> 0.8%
Sep-01-2024 to Sep-07-2024,ME,Webb Pond,0.64,44.66934,-68.2873,2679044,2024-09-01,2024-09-07,Webb Pond </br> 0.64%
Sep-01-2024 to Sep-07-2024,ME,Branch Lake,0.97,44.59887,-68.5593,2679104,2024-09-01,2024-09-07,Branch Lake </br> 0.97%
Sep-01-2024 to Sep-07-2024,ME,Tunk Lake,2.67,44.58877,-68.0707,2679128,2024-09-01,2024-09-07,Tunk Lake </br> 2.67%
Sep-01-2024 to Sep-07-2024,ME,Green Lake,0.68,44.64313,-68.4891,2680654,2024-09-01,2024-09-07,Green Lake </br> 0.68%
Sep-01-2024 to Sep-07-2024,MN,Sugar Lake,1.57,45.31743,-94.0393,2723763,2024-09-01,2024-09-07,Sugar Lake </br> 1.57%
Sep-01-2024 to Sep-07-2024,MN,Clearwater Lake,0.65,45.30458,-94.1194,2723765,2024-09-01,2024-09-07,Clearwater Lake </br> 0.65%
Sep-01-2024 to Sep-07-2024,MN,Cedar Lake,9.13,45.2693,-94.0646,2723925,2024-09-01,2024-09-07,Cedar Lake </br> 9.13%
Sep-01-2024 to Sep-07-2024,MN,Pleasant Lake,1.77,45.27491,-94.1247,2723927,2024-09-01,2024-09-07,Pleasant Lake </br> 1.77%
Sep-01-2024 to Sep-07-2024,PA,Lake Wallenpaupack,44.65,41.41261,-75.2352,2741600,2024-09-01,2024-09-07,Lake Wallenpaupack </br> 44.65%
Sep-01-2024 to Sep-07-2024,MN,Walnut Lake,69.79,43.67963,-93.8037,2747598,2024-09-01,2024-09-07,Walnut Lake </br> 69.79%
Sep-01-2024 to Sep-07-2024,CA,Lake Almanor,1.88,40.24725,-121.149,2772500,2024-09-01,2024-09-07,Lake Almanor </br> 1.88%
Sep-01-2024 to Sep-07-2024,CA,Butt Valley Reservoir,2.34,40.14258,-121.172,2772516,2024-09-01,2024-09-07,Butt Valley Reservoir </br> 2.34%
Sep-01-2024 to Sep-07-2024,CA,Bucks Lake,1.95,39.88922,-121.185,2775024,2024-09-01,2024-09-07,Bucks Lake </br> 1.95%
Sep-01-2024 to Sep-07-2024,CA,Whiskeytown Lake,2.97,40.62557,-122.559,2781993,2024-09-01,2024-09-07,Whiskeytown Lake </br> 2.97%
Sep-01-2024 to Sep-07-2024,CA,Calaveras Reservoir,54.2,37.47098,-121.816,2809463,2024-09-01,2024-09-07,Calaveras Reservoir </br> 54.2%
Sep-01-2024 to Sep-07-2024,CA,Woodward Reservoir,3.58,37.85238,-120.859,2822246,2024-09-01,2024-09-07,Woodward Reservoir </br> 3.58%
Sep-01-2024 to Sep-07-2024,CA,Turlock Lake,3.44,37.60872,-120.568,2822462,2024-09-01,2024-09-07,Turlock Lake </br> 3.44%
Sep-01-2024 to Sep-07-2024,CO,Union Reservoir,28.2,40.18229,-105.039,2888202,2024-09-01,2024-09-07,Union Reservoir </br> 28.2%
Sep-01-2024 to Sep-07-2024,CO,Boulder Reservoir,2.9,40.0784,-105.222,2888348,2024-09-01,2024-09-07,Boulder Reservoir </br> 2.9%
Sep-01-2024 to Sep-07-2024,CO,Cobb Lake,1.9,40.64184,-104.965,2901253,2024-09-01,2024-09-07,Cobb Lake </br> 1.9%
Sep-01-2024 to Sep-07-2024,CO,Timnath Reservoir,6.61,40.54897,-104.96,2901411,2024-09-01,2024-09-07,Timnath Reservoir </br> 6.61%
Sep-01-2024 to Sep-07-2024,CO,New Windsor Reservoir,2.78,40.5361,-104.888,2901431,2024-09-01,2024-09-07,New Windsor Reservoir </br> 2.78%
Sep-01-2024 to Sep-07-2024,KS,Hillsdale Lake,48.67,38.68225,-94.9235,2992128,2024-09-01,2024-09-07,Hillsdale Lake </br> 48.67%
Sep-01-2024 to Sep-07-2024,KS,La Cygnes Lake,33.34,38.3613,-94.6548,2995458,2024-09-01,2024-09-07,La Cygnes Lake </br> 33.34%
Sep-01-2024 to Sep-07-2024,MT,Upper Holter Lake,3.86,46.82199,-111.945,3022158,2024-09-01,2024-09-07,Upper Holter Lake </br> 3.86%
Sep-01-2024 to Sep-07-2024,MT,Hauser Lake,6.77,46.70183,-111.835,3022162,2024-09-01,2024-09-07,Hauser Lake </br> 6.77%
Sep-01-2024 to Sep-07-2024,MT,Lake Helena,50.91,46.69616,-111.932,3022168,2024-09-01,2024-09-07,Lake Helena </br> 50.91%
Sep-01-2024 to Sep-07-2024,MT,Ennis Lake,3.85,45.43123,-111.682,3053788,2024-09-01,2024-09-07,Ennis Lake </br> 3.85%
Sep-01-2024 to Sep-07-2024,MT,Hebgen Lake,1.81,44.77776,-111.23,3056866,2024-09-01,2024-09-07,Hebgen Lake </br> 1.81%
Sep-01-2024 to Sep-07-2024,MT,Medicine Lake,77.35,48.46327,-104.404,3101661,2024-09-01,2024-09-07,Medicine Lake </br> 77.35%
Sep-01-2024 to Sep-07-2024,TX,Smithers Lake,92.75,29.48958,-95.6482,3123820,2024-09-01,2024-09-07,Smithers Lake </br> 92.75%
Sep-01-2024 to Sep-07-2024,TX,Harris Reservoir,58.07,29.24115,-95.5402,3123960,2024-09-01,2024-09-07,Harris Reservoir </br> 58.07%
Sep-01-2024 to Sep-07-2024,TX,Lake Nocona,56.28,33.86585,-97.656,3133527,2024-09-01,2024-09-07,Lake Nocona </br> 56.28%
Sep-01-2024 to Sep-07-2024,OK,Foss Reservoir,6.98,35.58334,-99.2312,3140356,2024-09-01,2024-09-07,Foss Reservoir </br> 6.98%
Sep-01-2024 to Sep-07-2024,TX,Lake Corpus Christi,12.1,28.13605,-97.9082,3169144,2024-09-01,2024-09-07,Lake Corpus Christi </br> 12.1%
Sep-01-2024 to Sep-07-2024,CO,Vega Reservoir,59.81,39.22357,-107.795,3180118,2024-09-01,2024-09-07,Vega Reservoir </br> 59.81%
Sep-01-2024 to Sep-07-2024,WY,Lake Viva Naughton,48.37,41.98399,-110.664,3192800,2024-09-01,2024-09-07,Lake Viva Naughton </br> 48.37%
Sep-01-2024 to Sep-07-2024,WY,Sweetwater County,3.04,41.60267,-109.802,3194578,2024-09-01,2024-09-07,Sweetwater County </br> 3.04%
Sep-01-2024 to Sep-07-2024,TX,Red Bluff Reservoir,8.09,31.94166,-103.932,3210503,2024-09-01,2024-09-07,Red Bluff Reservoir </br> 8.09%
Sep-01-2024 to Sep-07-2024,TX,Imperial Reservoir,44.83,31.26787,-102.852,3213047,2024-09-01,2024-09-07,Imperial Reservoir </br> 44.83%
Sep-01-2024 to Sep-07-2024,NM,Caballo Reservoir,16.61,32.93823,-107.295,3222367,2024-09-01,2024-09-07,Caballo Reservoir </br> 16.61%
Sep-01-2024 to Sep-07-2024,CO,Blue Mesa Reservoir,5.39,38.46417,-107.202,3252975,2024-09-01,2024-09-07,Blue Mesa Reservoir </br> 5.39%
Sep-01-2024 to Sep-07-2024,ME,Pleasant Pond,1.21,45.25413,-69.9205,3318032,2024-09-01,2024-09-07,Pleasant Pond </br> 1.21%
Sep-01-2024 to Sep-07-2024,ME,Wyman Lake,3.85,45.1042,-69.9399,3318110,2024-09-01,2024-09-07,Wyman Lake </br> 3.85%
Sep-01-2024 to Sep-07-2024,ME,Lake Wassookeag,2.38,45.03004,-69.3088,3318172,2024-09-01,2024-09-07,Lake Wassookeag </br> 2.38%
Sep-01-2024 to Sep-07-2024,ME,Embden Pond,1.75,44.94028,-69.948,3319842,2024-09-01,2024-09-07,Embden Pond </br> 1.75%
Sep-01-2024 to Sep-07-2024,ME,Great Moose Lake,2.21,44.92336,-69.517,3319854,2024-09-01,2024-09-07,Great Moose Lake </br> 2.21%
Sep-01-2024 to Sep-07-2024,ME,Sebasticook Lake,22.25,44.85917,-69.2421,3319884,2024-09-01,2024-09-07,Sebasticook Lake </br> 22.25%
Sep-01-2024 to Sep-07-2024,ME,Wesserunsett Lake,1.76,44.83983,-69.7678,3319916,2024-09-01,2024-09-07,Wesserunsett Lake </br> 1.76%
Sep-01-2024 to Sep-07-2024,ME,Unity Pond,41.76,44.64609,-69.33,3319994,2024-09-01,2024-09-07,Unity Pond </br> 41.76%
Sep-01-2024 to Sep-07-2024,ME,North Pond,14.71,44.62376,-69.8437,3320002,2024-09-01,2024-09-07,North Pond </br> 14.71%
Sep-01-2024 to Sep-07-2024,ME,East Pond,7.31,44.61081,-69.7846,3320004,2024-09-01,2024-09-07,East Pond </br> 7.31%
Sep-01-2024 to Sep-07-2024,ME,McGrath Pond,10.91,44.53953,-69.7755,3320048,2024-09-01,2024-09-07,McGrath Pond </br> 10.91%
Sep-01-2024 to Sep-07-2024,ME,Porter Lake,5.68,44.81041,-70.1516,3322860,2024-09-01,2024-09-07,Porter Lake </br> 5.68%
Sep-01-2024 to Sep-07-2024,ME,China Lake,4.96,44.43776,-69.5592,3323678,2024-09-01,2024-09-07,China Lake </br> 4.96%
Sep-01-2024 to Sep-07-2024,ME,Webber Pond,29.42,44.40986,-69.6546,3323750,2024-09-01,2024-09-07,Webber Pond </br> 29.42%
Sep-01-2024 to Sep-07-2024,ME,Maranacook Lake,1.3,44.34496,-69.9563,3323844,2024-09-01,2024-09-07,Maranacook Lake </br> 1.3%
Sep-01-2024 to Sep-07-2024,ME,Threemile Pond,68.84,44.36661,-69.6053,3323864,2024-09-01,2024-09-07,Threemile Pond </br> 68.84%
Sep-01-2024 to Sep-07-2024,ME,Annabessacook Lake,23.74,44.26812,-69.9803,3323982,2024-09-01,2024-09-07,Annabessacook Lake </br> 23.74%
Sep-01-2024 to Sep-07-2024,ME,Cobbosseecontee Lake,7.42,44.26975,-69.9243,3325032,2024-09-01,2024-09-07,Cobbosseecontee Lake </br> 7.42%
Sep-01-2024 to Sep-07-2024,MI,Gun Lake,3.77,42.60175,-85.5208,3466553,2024-09-01,2024-09-07,Gun Lake </br> 3.77%
Sep-01-2024 to Sep-07-2024,MI,Lake Allegan,3.95,42.55347,-85.9309,3466799,2024-09-01,2024-09-07,Lake Allegan </br> 3.95%
Sep-01-2024 to Sep-07-2024,MI,Duck Lake,4.83,42.38738,-84.7853,3468795,2024-09-01,2024-09-07,Duck Lake </br> 4.83%
Sep-01-2024 to Sep-07-2024,MI,Gull Lake,4.46,42.4016,-85.4123,3471541,2024-09-01,2024-09-07,Gull Lake </br> 4.46%
Sep-01-2024 to Sep-07-2024,MI,Morrow Lake,3.72,42.27749,-85.4658,3471917,2024-09-01,2024-09-07,Morrow Lake </br> 3.72%
Sep-01-2024 to Sep-07-2024,UT,Sevier Bridge Reservoir,24.2,39.38393,-112.017,3501837,2024-09-01,2024-09-07,Sevier Bridge Reservoir </br> 24.2%
Sep-01-2024 to Sep-07-2024,UT,Lake Powell,3.31,37.27534,-110.958,3528295,2024-09-01,2024-09-07,Lake Powell </br> 3.31%
Sep-01-2024 to Sep-07-2024,CO,North Sterling Reservoir,31.27,40.77957,-103.291,3554474,2024-09-01,2024-09-07,North Sterling Reservoir </br> 31.27%
Sep-01-2024 to Sep-07-2024,CO,Julesburg Reservoir,17.42,40.93141,-102.651,3556390,2024-09-01,2024-09-07,Julesburg Reservoir </br> 17.42%
Sep-01-2024 to Sep-07-2024,CO,Prewitt Reservoir,91.68,40.42296,-103.361,3559986,2024-09-01,2024-09-07,Prewitt Reservoir </br> 91.68%
Sep-01-2024 to Sep-07-2024,TX,Canyon Lake,2.43,29.88633,-98.249,3588682,2024-09-01,2024-09-07,Canyon Lake </br> 2.43%
Sep-01-2024 to Sep-07-2024,IL,Meredosia Lake,73.94,39.87346,-90.5515,3594316,2024-09-01,2024-09-07,Meredosia Lake </br> 73.94%
Sep-01-2024 to Sep-07-2024,AR,Wapanocca Lake,95.35,35.34536,-90.234,3673078,2024-09-01,2024-09-07,Wapanocca Lake </br> 95.35%
Sep-01-2024 to Sep-07-2024,AR,Horseshoe Lake,85.89,34.92555,-90.3403,3681830,2024-09-01,2024-09-07,Horseshoe Lake </br> 85.89%
Sep-01-2024 to Sep-07-2024,LA,Lake Charles,1.26,30.21604,-93.2551,3709224,2024-09-01,2024-09-07,Lake Charles </br> 1.26%
Sep-01-2024 to Sep-07-2024,LA,Moss Lake,1.63,30.11811,-93.335,3709440,2024-09-01,2024-09-07,Moss Lake </br> 1.63%
Sep-01-2024 to Sep-07-2024,LA,Willow Lake,9.34,29.97953,-93.1879,3710620,2024-09-01,2024-09-07,Willow Lake </br> 9.34%
Sep-01-2024 to Sep-07-2024,LA,N Sweet Lake,17,29.97234,-93.1384,3710644,2024-09-01,2024-09-07,N Sweet Lake </br> 17%
Sep-01-2024 to Sep-07-2024,LA,Sweet Lake,3.15,29.94593,-93.1451,3710692,2024-09-01,2024-09-07,Sweet Lake </br> 3.15%
Sep-01-2024 to Sep-07-2024,LA,Mud Lake,95.32,29.80235,-93.4538,3710964,2024-09-01,2024-09-07,Mud Lake </br> 95.32%
Sep-01-2024 to Sep-07-2024,KS,Clinton Lake,5.49,38.91798,-95.3858,3730511,2024-09-01,2024-09-07,Clinton Lake </br> 5.49%
Sep-01-2024 to Sep-07-2024,LA,Cypress Bayou Reservoir,35.29,32.6826,-93.6698,3759766,2024-09-01,2024-09-07,Cypress Bayou Reservoir </br> 35.29%
Sep-01-2024 to Sep-07-2024,TX,Eagle Lake,98.99,29.56776,-96.3434,3762790,2024-09-01,2024-09-07,Eagle Lake </br> 98.99%
Sep-01-2024 to Sep-07-2024,TX,Brazoria Reservoir,6.22,29.06983,-95.5273,3764608,2024-09-01,2024-09-07,Brazoria Reservoir </br> 6.22%
Sep-01-2024 to Sep-07-2024,PA,Youghlogheny River Lake,2.88,39.75258,-79.3851,3806779,2024-09-01,2024-09-07,Youghlogheny River Lake </br> 2.88%
Sep-01-2024 to Sep-07-2024,UT,Scofield Reservoir,34.53,39.7737,-111.152,3906255,2024-09-01,2024-09-07,Scofield Reservoir </br> 34.53%
Sep-01-2024 to Sep-07-2024,CA,Lake Shastina,27.82,41.5206,-122.393,3917046,2024-09-01,2024-09-07,Lake Shastina </br> 27.82%
Sep-01-2024 to Sep-07-2024,CA,Camanche Reservoir,2.13,38.22138,-121.01,3950979,2024-09-01,2024-09-07,Camanche Reservoir </br> 2.13%
Sep-01-2024 to Sep-07-2024,OH,Clarence J Brown Reservoir,82.74,39.96826,-83.7308,3984810,2024-09-01,2024-09-07,Clarence J Brown Reservoir </br> 82.74%
Sep-01-2024 to Sep-07-2024,KY,Green River Lake,5.09,37.24829,-85.2918,3999688,2024-09-01,2024-09-07,Green River Lake </br> 5.09%
Sep-01-2024 to Sep-07-2024,SD,Bullhead Lake,85.77,45.43104,-96.7717,4082352,2024-09-01,2024-09-07,Bullhead Lake </br> 85.77%
Sep-01-2024 to Sep-07-2024,MN,Marsh Lake,65.59,45.19476,-96.1463,4083248,2024-09-01,2024-09-07,Marsh Lake </br> 65.59%
Sep-01-2024 to Sep-07-2024,MN,North Turtle Lake,67.56,46.30507,-95.8015,4098895,2024-09-01,2024-09-07,North Turtle Lake </br> 67.56%
Sep-01-2024 to Sep-07-2024,MN,Stalker Lake,2.62,46.20814,-95.8288,4099203,2024-09-01,2024-09-07,Stalker Lake </br> 2.62%
Sep-01-2024 to Sep-07-2024,MN,Eagle Lake,2.25,46.17086,-95.692,4099427,2024-09-01,2024-09-07,Eagle Lake </br> 2.25%
Sep-01-2024 to Sep-07-2024,MN,Tenmile Lake,1.68,46.12565,-95.9668,4099665,2024-09-01,2024-09-07,Tenmile Lake </br> 1.68%
Sep-01-2024 to Sep-07-2024,MN,Lake Christina,75.53,46.09054,-95.7366,4099849,2024-09-01,2024-09-07,Lake Christina </br> 75.53%
Sep-01-2024 to Sep-07-2024,MN,Melby Lake,69.02,46.05746,-95.8024,4099945,2024-09-01,2024-09-07,Melby Lake </br> 69.02%
Sep-01-2024 to Sep-07-2024,MN,Perkins Lake,52.89,45.7004,-95.8618,4103107,2024-09-01,2024-09-07,Perkins Lake </br> 52.89%
Sep-01-2024 to Sep-07-2024,MN,Artichoke Lake,75.28,45.35486,-96.139,4104123,2024-09-01,2024-09-07,Artichoke Lake </br> 75.28%
Sep-01-2024 to Sep-07-2024,SD,Lake Alice,42.88,44.87791,-96.634,4110960,2024-09-01,2024-09-07,Lake Alice </br> 42.88%
Sep-01-2024 to Sep-07-2024,SD,Fish Lake,75.06,44.60143,-96.4773,4111236,2024-09-01,2024-09-07,Fish Lake </br> 75.06%
Sep-01-2024 to Sep-07-2024,MN,Long Lake,73.62,45.20314,-95.0347,4120278,2024-09-01,2024-09-07,Long Lake </br> 73.62%
Sep-01-2024 to Sep-07-2024,TX,Navarro Mills Lake,92.81,31.9495,-96.7454,4132531,2024-09-01,2024-09-07,Navarro Mills Lake </br> 92.81%
Sep-01-2024 to Sep-07-2024,MN,Dead Coon Lake,62.02,44.36219,-96.0962,4136948,2024-09-01,2024-09-07,Dead Coon Lake </br> 62.02%
Sep-01-2024 to Sep-07-2024,MN,Lake Benton,74.44,44.29177,-96.2407,4136984,2024-09-01,2024-09-07,Lake Benton </br> 74.44%
Sep-01-2024 to Sep-07-2024,MN,Lake Washington,86.92,44.25315,-93.8714,4141150,2024-09-01,2024-09-07,Lake Washington </br> 86.92%
Sep-01-2024 to Sep-07-2024,MN,Loon Lake,82.9,44.09894,-94.1772,4141942,2024-09-01,2024-09-07,Loon Lake </br> 82.9%
Sep-01-2024 to Sep-07-2024,NY,Neversink Reservoir,2.77,41.84256,-74.6554,4146742,2024-09-01,2024-09-07,Neversink Reservoir </br> 2.77%
Sep-01-2024 to Sep-07-2024,MT,Clark Canyon Reservoir,26.53,44.96929,-112.872,4167440,2024-09-01,2024-09-07,Clark Canyon Reservoir </br> 26.53%
Sep-01-2024 to Sep-07-2024,MT,Upper Red Rock Lake,1.99,44.61054,-111.723,4171142,2024-09-01,2024-09-07,Upper Red Rock Lake </br> 1.99%
Sep-01-2024 to Sep-07-2024,MN,Pelican Lake,75.75,45.22734,-93.7594,4250226,2024-09-01,2024-09-07,Pelican Lake </br> 75.75%
Sep-01-2024 to Sep-07-2024,MN,Lake Pulaski,9.33,45.19812,-93.8541,4250322,2024-09-01,2024-09-07,Lake Pulaski </br> 9.33%
Sep-01-2024 to Sep-07-2024,MN,Buffalo Lake,67.33,45.16295,-93.8936,4250428,2024-09-01,2024-09-07,Buffalo Lake </br> 67.33%
Sep-01-2024 to Sep-07-2024,MN,Waverly Lake,33.44,45.07419,-93.9713,4250568,2024-09-01,2024-09-07,Waverly Lake </br> 33.44%
Sep-01-2024 to Sep-07-2024,MN,Rice Lake,74.89,45.37442,-94.6213,4251354,2024-09-01,2024-09-07,Rice Lake </br> 74.89%
Sep-01-2024 to Sep-07-2024,MN,Lake Koronis,31.32,45.33563,-94.7093,4251408,2024-09-01,2024-09-07,Lake Koronis </br> 31.32%
Sep-01-2024 to Sep-07-2024,MN,Lake Monongalia,0.81,45.33425,-94.9499,4251422,2024-09-01,2024-09-07,Lake Monongalia </br> 0.81%
Sep-01-2024 to Sep-07-2024,MN,Lake Calhoun,3.67,45.27294,-94.8325,4251580,2024-09-01,2024-09-07,Lake Calhoun </br> 3.67%
Sep-01-2024 to Sep-07-2024,MN,Green Lake,1.55,45.25232,-94.9054,4251588,2024-09-01,2024-09-07,Green Lake </br> 1.55%
Sep-01-2024 to Sep-07-2024,MN,Nest Lake,3.24,45.25987,-94.9673,4251590,2024-09-01,2024-09-07,Nest Lake </br> 3.24%
Sep-01-2024 to Sep-07-2024,MN,Marie Lake,0.69,45.25061,-94.2059,4251618,2024-09-01,2024-09-07,Marie Lake </br> 0.69%
Sep-01-2024 to Sep-07-2024,MN,Lake Francis,1.24,45.22107,-94.2607,4251680,2024-09-01,2024-09-07,Lake Francis </br> 1.24%
Sep-01-2024 to Sep-07-2024,MN,Diamond Lake,62.03,45.18338,-94.8416,4251740,2024-09-01,2024-09-07,Diamond Lake </br> 62.03%
Sep-01-2024 to Sep-07-2024,MN,Lake Ripley,32.62,45.10674,-94.54,4251934,2024-09-01,2024-09-07,Lake Ripley </br> 32.62%
Sep-01-2024 to Sep-07-2024,MN,Lake Washington,11.39,45.06936,-94.3757,4252042,2024-09-01,2024-09-07,Lake Washington </br> 11.39%
Sep-01-2024 to Sep-07-2024,MN,Howard Lake,62.51,45.0722,-94.0692,4252056,2024-09-01,2024-09-07,Howard Lake </br> 62.51%
Sep-01-2024 to Sep-07-2024,MN,Lake Stella,3.21,45.06662,-94.419,4252072,2024-09-01,2024-09-07,Lake Stella </br> 3.21%
Sep-01-2024 to Sep-07-2024,MN,Collinwood Lake,79.09,45.05167,-94.2551,4252106,2024-09-01,2024-09-07,Collinwood Lake </br> 79.09%
Sep-01-2024 to Sep-07-2024,MN,Lake Minnie-Belle,4.09,45.03587,-94.5275,4252134,2024-09-01,2024-09-07,Lake Minnie-Belle </br> 4.09%
Sep-01-2024 to Sep-07-2024,ME,Baker Lake,3.87,46.26733,-69.9115,4290163,2024-09-01,2024-09-07,Baker Lake </br> 3.87%
Sep-01-2024 to Sep-07-2024,ME,Brassua Lake,1.83,45.66824,-69.8754,4290677,2024-09-01,2024-09-07,Brassua Lake </br> 1.83%
Sep-01-2024 to Sep-07-2024,MT,Whitetail Reservoir,15.33,46.07833,-112.273,4312274,2024-09-01,2024-09-07,Whitetail Reservoir </br> 15.33%
Sep-01-2024 to Sep-07-2024,MN,Lake Aaron,39.79,46.07237,-95.5846,4411912,2024-09-01,2024-09-07,Lake Aaron </br> 39.79%
Sep-01-2024 to Sep-07-2024,MN,Lake Moses,11.33,46.06109,-95.5987,4411926,2024-09-01,2024-09-07,Lake Moses </br> 11.33%
Sep-01-2024 to Sep-07-2024,MN,Chippewa Lake,0.01,45.99079,-95.5432,4412412,2024-09-01,2024-09-07,Chippewa Lake </br> 0.01%
Sep-01-2024 to Sep-07-2024,MN,Maple Lake,2.45,45.77808,-95.3709,4413176,2024-09-01,2024-09-07,Maple Lake </br> 2.45%
Sep-01-2024 to Sep-07-2024,MN,Lake Reno,24.31,45.7402,-95.4198,4413246,2024-09-01,2024-09-07,Lake Reno </br> 24.31%
Sep-01-2024 to Sep-07-2024,MN,Villard Lake,30.62,45.71165,-95.2922,4413350,2024-09-01,2024-09-07,Villard Lake </br> 30.62%
Sep-01-2024 to Sep-07-2024,MN,Amelia Lake,13.97,45.68685,-95.2904,4413390,2024-09-01,2024-09-07,Amelia Lake </br> 13.97%
Sep-01-2024 to Sep-07-2024,MN,Lake Minnewaska,3,45.61765,-95.4508,4413504,2024-09-01,2024-09-07,Lake Minnewaska </br> 3%
Sep-01-2024 to Sep-07-2024,MN,Lake Emily,42.54,45.5162,-95.6473,4413720,2024-09-01,2024-09-07,Lake Emily </br> 42.54%
Sep-01-2024 to Sep-07-2024,MN,Lake Johanna,54.5,45.46834,-95.2243,4415134,2024-09-01,2024-09-07,Lake Johanna </br> 54.5%
Sep-01-2024 to Sep-07-2024,MN,Norway Lake,83.01,45.32043,-95.1211,4415506,2024-09-01,2024-09-07,Norway Lake </br> 83.01%
Sep-01-2024 to Sep-07-2024,MN,Andrew Lake,5.77,45.30999,-95.0438,4415554,2024-09-01,2024-09-07,Andrew Lake </br> 5.77%
Sep-01-2024 to Sep-07-2024,MN,Florida Lake,8.38,45.25241,-95.057,4415632,2024-09-01,2024-09-07,Florida Lake </br> 8.38%
Sep-01-2024 to Sep-07-2024,TX,Lake Palestine,69.78,32.18816,-95.4743,4451216,2024-09-01,2024-09-07,Lake Palestine </br> 69.78%
Sep-01-2024 to Sep-07-2024,MO,Long Branch Lake,39.56,39.7965,-92.5156,4460822,2024-09-01,2024-09-07,Long Branch Lake </br> 39.56%
Sep-01-2024 to Sep-07-2024,MO,Thomas Hill Reservoir,6.45,39.60589,-92.6318,4460922,2024-09-01,2024-09-07,Thomas Hill Reservoir </br> 6.45%
Sep-01-2024 to Sep-07-2024,ID,Mud Lake,2.3,42.1332,-111.293,4472023,2024-09-01,2024-09-07,Mud Lake </br> 2.3%
Sep-01-2024 to Sep-07-2024,VT,Caspian Lake,2.76,44.5859,-72.3097,4586134,2024-09-01,2024-09-07,Caspian Lake </br> 2.76%
Sep-01-2024 to Sep-07-2024,VT,Lake Carmi,47.06,44.97217,-72.8751,4589969,2024-09-01,2024-09-07,Lake Carmi </br> 47.06%
Sep-01-2024 to Sep-07-2024,NH,Second Connecticut Lake,3.02,45.15512,-71.1721,4592019,2024-09-01,2024-09-07,Second Connecticut Lake </br> 3.02%
Sep-01-2024 to Sep-07-2024,NH,Connecticut Lakes,1.54,45.09196,-71.2481,4592043,2024-09-01,2024-09-07,Connecticut Lakes </br> 1.54%
Sep-01-2024 to Sep-07-2024,NH,Lake Francis,2.43,45.04275,-71.3301,4592065,2024-09-01,2024-09-07,Lake Francis </br> 2.43%
Sep-01-2024 to Sep-07-2024,VT,Maidstone Lake,5.32,44.6479,-71.6494,4592671,2024-09-01,2024-09-07,Maidstone Lake </br> 5.32%
Sep-01-2024 to Sep-07-2024,NH,Moore Reservoir,2.49,44.35825,-71.8248,4594507,2024-09-01,2024-09-07,Moore Reservoir </br> 2.49%
Sep-01-2024 to Sep-07-2024,VT,Great Averill Pond,3.33,44.98442,-71.7031,4599077,2024-09-01,2024-09-07,Great Averill Pond </br> 3.33%
Sep-01-2024 to Sep-07-2024,VT,Lake Salem,1.27,44.93036,-72.1058,4599579,2024-09-01,2024-09-07,Lake Salem </br> 1.27%
Sep-01-2024 to Sep-07-2024,VT,Lake Willoughby,3.77,44.7502,-72.0566,4599629,2024-09-01,2024-09-07,Lake Willoughby </br> 3.77%
Sep-01-2024 to Sep-07-2024,MN,Roosevelt Lake,2.64,46.80522,-93.9649,4616338,2024-09-01,2024-09-07,Roosevelt Lake </br> 2.64%
Sep-01-2024 to Sep-07-2024,MN,Emily Lake,74.92,46.72526,-93.9459,4616696,2024-09-01,2024-09-07,Emily Lake </br> 74.92%
Sep-01-2024 to Sep-07-2024,MN,Pine Mountain Lake,11.1,46.82371,-94.5331,4619272,2024-09-01,2024-09-07,Pine Mountain Lake </br> 11.1%
Sep-01-2024 to Sep-07-2024,MN,Lake Ada,1.03,46.82975,-94.3492,4619296,2024-09-01,2024-09-07,Lake Ada </br> 1.03%
Sep-01-2024 to Sep-07-2024,MN,Pine River Reservoir,1.14,46.68946,-94.1948,4620258,2024-09-01,2024-09-07,Pine River Reservoir </br> 1.14%
Sep-01-2024 to Sep-07-2024,MN,Upper Hay Lake,13.42,46.64267,-94.3026,4620672,2024-09-01,2024-09-07,Upper Hay Lake </br> 13.42%
Sep-01-2024 to Sep-07-2024,MN,Pelican Lake,1.17,46.57607,-94.1756,4620890,2024-09-01,2024-09-07,Pelican Lake </br> 1.17%
Sep-01-2024 to Sep-07-2024,MN,Horseshoe Lake,2.75,46.58251,-94.1142,4621002,2024-09-01,2024-09-07,Horseshoe Lake </br> 2.75%
Sep-01-2024 to Sep-07-2024,PA,Raystown Lake,2.64,40.36437,-78.1025,4690013,2024-09-01,2024-09-07,Raystown Lake </br> 2.64%
Sep-01-2024 to Sep-07-2024,PA,Lake Aldred,3.22,39.77439,-76.2747,4726045,2024-09-01,2024-09-07,Lake Aldred </br> 3.22%
Sep-01-2024 to Sep-07-2024,MN,Pine Lake,1.37,48.06246,-90.1642,4792982,2024-09-01,2024-09-07,Pine Lake </br> 1.37%
Sep-01-2024 to Sep-07-2024,MN,Brule Lake,2.2,47.94058,-90.6824,4795750,2024-09-01,2024-09-07,Brule Lake </br> 2.2%
Sep-01-2024 to Sep-07-2024,MN,Devils Track Lake,4.1,47.82353,-90.4239,4796552,2024-09-01,2024-09-07,Devils Track Lake </br> 4.1%
Sep-01-2024 to Sep-07-2024,MN,Big Sand Lake,3.37,47.0634,-93.9703,4816421,2024-09-01,2024-09-07,Big Sand Lake </br> 3.37%
Sep-01-2024 to Sep-07-2024,MN,Portage Lake,21.39,47.34286,-94.3089,4817559,2024-09-01,2024-09-07,Portage Lake </br> 21.39%
Sep-01-2024 to Sep-07-2024,MN,Sucker Lakes,47.96,47.32918,-94.4257,4817601,2024-09-01,2024-09-07,Sucker Lakes </br> 47.96%
Sep-01-2024 to Sep-07-2024,MN,Sixmile Lake,7.49,47.31145,-94.1421,4817643,2024-09-01,2024-09-07,Sixmile Lake </br> 7.49%
Sep-01-2024 to Sep-07-2024,MN,Leech Lake,2.7,47.16226,-94.4053,4817675,2024-09-01,2024-09-07,Leech Lake </br> 2.7%
Sep-01-2024 to Sep-07-2024,MN,Lake Thirteen,0.91,47.29125,-94.5494,4817711,2024-09-01,2024-09-07,Lake Thirteen </br> 0.91%
Sep-01-2024 to Sep-07-2024,MN,Steamboat Lake,1.8,47.26459,-94.6589,4817769,2024-09-01,2024-09-07,Steamboat Lake </br> 1.8%
Sep-01-2024 to Sep-07-2024,MN,Crooked Lake,1.27,47.24292,-94.5678,4817819,2024-09-01,2024-09-07,Crooked Lake </br> 1.27%
Sep-01-2024 to Sep-07-2024,MN,Garfield Lake,5.74,47.22677,-94.7479,4817823,2024-09-01,2024-09-07,Garfield Lake </br> 5.74%
Sep-01-2024 to Sep-07-2024,MN,Swamp Lake,3.35,47.21398,-94.644,4817841,2024-09-01,2024-09-07,Swamp Lake </br> 3.35%
Sep-01-2024 to Sep-07-2024,MN,Kabekona Lake,1.24,47.16353,-94.7591,4817931,2024-09-01,2024-09-07,Kabekona Lake </br> 1.24%
Sep-01-2024 to Sep-07-2024,MN,Oak Lake,1.06,47.14042,-94.6574,4819397,2024-09-01,2024-09-07,Oak Lake </br> 1.06%
Sep-01-2024 to Sep-07-2024,MN,Girl Lake,2.77,46.9535,-94.2768,4821587,2024-09-01,2024-09-07,Girl Lake </br> 2.77%
Sep-01-2024 to Sep-07-2024,MN,Inguadona Lake/Rice Lake,1.02,46.96325,-94.1403,4821725,2024-09-01,2024-09-07,Inguadona Lake/Rice Lake </br> 1.02%
Sep-01-2024 to Sep-07-2024,MN,Webb Lake,1.23,46.9564,-94.414,4821741,2024-09-01,2024-09-07,Webb Lake </br> 1.23%
Sep-01-2024 to Sep-07-2024,MN,Little Boy Lake,0.72,46.94303,-94.19,4821857,2024-09-01,2024-09-07,Little Boy Lake </br> 0.72%
Sep-01-2024 to Sep-07-2024,MN,Birch Lake,1.47,46.93869,-94.5454,4821881,2024-09-01,2024-09-07,Birch Lake </br> 1.47%
Sep-01-2024 to Sep-07-2024,MN,Boss Lake,0.88,46.91649,-94.4731,4821997,2024-09-01,2024-09-07,Boss Lake </br> 0.88%
Sep-01-2024 to Sep-07-2024,MN,Wabedo Lake,0.94,46.90828,-94.2154,4822083,2024-09-01,2024-09-07,Wabedo Lake </br> 0.94%
Sep-01-2024 to Sep-07-2024,MN,Black Water Lake,1.69,46.90866,-94.3049,4822095,2024-09-01,2024-09-07,Black Water Lake </br> 1.69%
Sep-01-2024 to Sep-07-2024,MN,Round Lake,4.05,47.60069,-93.3608,4831058,2024-09-01,2024-09-07,Round Lake </br> 4.05%
Sep-01-2024 to Sep-07-2024,MN,Buck Lake,3.97,47.53787,-93.188,4831412,2024-09-01,2024-09-07,Buck Lake </br> 3.97%
Sep-01-2024 to Sep-07-2024,MN,Trout Lake,1.5,47.46094,-93.5529,4833160,2024-09-01,2024-09-07,Trout Lake </br> 1.5%
Sep-01-2024 to Sep-07-2024,MN,Wabana Lake,1.74,47.42229,-93.5227,4833388,2024-09-01,2024-09-07,Wabana Lake </br> 1.74%
Sep-01-2024 to Sep-07-2024,MN,Swan Lake,2.96,47.30015,-93.1839,4834066,2024-09-01,2024-09-07,Swan Lake </br> 2.96%
Sep-01-2024 to Sep-07-2024,MN,Shoal Lake,75.2,47.3024,-93.5725,4834134,2024-09-01,2024-09-07,Shoal Lake </br> 75.2%
Sep-01-2024 to Sep-07-2024,MN,Trout Lake,1.9,47.25978,-93.4049,4834232,2024-09-01,2024-09-07,Trout Lake </br> 1.9%
Sep-01-2024 to Sep-07-2024,MN,Split Hand Lake,61.57,47.06038,-93.4854,4835034,2024-09-01,2024-09-07,Split Hand Lake </br> 61.57%
Sep-01-2024 to Sep-07-2024,MN,Prairie Lake,24,46.79132,-92.9048,4838796,2024-09-01,2024-09-07,Prairie Lake </br> 24%
Sep-01-2024 to Sep-07-2024,MN,Thunder Lake,3.4,46.95265,-93.9741,4839500,2024-09-01,2024-09-07,Thunder Lake </br> 3.4%
Sep-01-2024 to Sep-07-2024,MN,Lake Minnewawa,14.02,46.70873,-93.2639,4840066,2024-09-01,2024-09-07,Lake Minnewawa </br> 14.02%
Sep-01-2024 to Sep-07-2024,MN,Round Lake,2.11,46.69644,-93.1925,4840114,2024-09-01,2024-09-07,Round Lake </br> 2.11%
Sep-01-2024 to Sep-07-2024,MN,Esquagamah Lake,66.69,46.7394,-93.6932,4851955,2024-09-01,2024-09-07,Esquagamah Lake </br> 66.69%
Sep-01-2024 to Sep-07-2024,MN,Waukenabo Lake,46.77,46.73531,-93.6216,4851965,2024-09-01,2024-09-07,Waukenabo Lake </br> 46.77%
Sep-01-2024 to Sep-07-2024,MN,Round Lake,11.31,46.72638,-93.6526,4851981,2024-09-01,2024-09-07,Round Lake </br> 11.31%
Sep-01-2024 to Sep-07-2024,MN,Upper Mission Lake,14.13,46.55453,-94.0735,4854979,2024-09-01,2024-09-07,Upper Mission Lake </br> 14.13%
Sep-01-2024 to Sep-07-2024,MN,Serpent Lake,2.2,46.48039,-93.9245,4855685,2024-09-01,2024-09-07,Serpent Lake </br> 2.2%
Sep-01-2024 to Sep-07-2024,MN,Ripple Lake,39.65,46.46615,-93.6831,4855703,2024-09-01,2024-09-07,Ripple Lake </br> 39.65%
Sep-01-2024 to Sep-07-2024,MN,Farm Island Lake,11.31,46.42207,-93.7721,4855949,2024-09-01,2024-09-07,Farm Island Lake </br> 11.31%
Sep-01-2024 to Sep-07-2024,MN,Nokay Lake,19,46.37863,-93.9637,4856147,2024-09-01,2024-09-07,Nokay Lake </br> 19%
Sep-01-2024 to Sep-07-2024,MN,Bass Lake,0.97,46.4907,-94.1403,4857069,2024-09-01,2024-09-07,Bass Lake </br> 0.97%
Sep-01-2024 to Sep-07-2024,MN,Upper South Long Lake,12.2,46.31034,-94.0376,4857623,2024-09-01,2024-09-07,Upper South Long Lake </br> 12.2%
Sep-01-2024 to Sep-07-2024,MN,South Long Lake,33.71,46.28056,-94.0856,4857683,2024-09-01,2024-09-07,South Long Lake </br> 33.71%
Sep-01-2024 to Sep-07-2024,MN,Big Swan Lake,41.32,45.88436,-94.7517,4859143,2024-09-01,2024-09-07,Big Swan Lake </br> 41.32%
Sep-01-2024 to Sep-07-2024,UT,Joes Valley Reservoir,2.8,39.29327,-111.28,4876219,2024-09-01,2024-09-07,Joes Valley Reservoir </br> 2.8%
Sep-01-2024 to Sep-07-2024,UT,Johnson Valley Reservoir,13.27,38.60957,-111.645,4899751,2024-09-01,2024-09-07,Johnson Valley Reservoir </br> 13.27%
Sep-01-2024 to Sep-07-2024,UT,Fish Lake,1.37,38.54808,-111.71,4899761,2024-09-01,2024-09-07,Fish Lake </br> 1.37%
Sep-01-2024 to Sep-07-2024,MN,Mantrap Lake,1.17,47.07077,-94.9127,4936611,2024-09-01,2024-09-07,Mantrap Lake </br> 1.17%
Sep-01-2024 to Sep-07-2024,MN,Lake Belle Taine,2.24,46.94354,-94.887200000000007,4940835,2024-09-01,2024-09-07,Lake Belle Taine </br> 2.24%
Sep-01-2024 to Sep-07-2024,MN,Lower Cullen Lake,0.87,46.5448,-94.2787,4942039,2024-09-01,2024-09-07,Lower Cullen Lake </br> 0.87%
Sep-01-2024 to Sep-07-2024,MN,Shell Lake,4.49,46.94617,-95.4467,4943483,2024-09-01,2024-09-07,Shell Lake </br> 4.49%
Sep-01-2024 to Sep-07-2024,MN,Mud Lake,1.5,46.95509,-95.0632,4945805,2024-09-01,2024-09-07,Mud Lake </br> 1.5%
Sep-01-2024 to Sep-07-2024,MN,Lake Hubert,0.3,46.48652,-94.267,4946183,2024-09-01,2024-09-07,Lake Hubert </br> 0.3%
Sep-01-2024 to Sep-07-2024,MN,Round Lake,0.31,46.45769,-94.2829,4946249,2024-09-01,2024-09-07,Round Lake </br> 0.31%
Sep-01-2024 to Sep-07-2024,MN,North Long Lake,0.54,46.43832,-94.2417,4946253,2024-09-01,2024-09-07,North Long Lake </br> 0.54%
Sep-01-2024 to Sep-07-2024,MN,Rice Portage Lake,0.94,46.85453,-94.4237,4955292,2024-09-01,2024-09-07,Rice Portage Lake </br> 0.94%
Sep-01-2024 to Sep-07-2024,MN,Wolf Lake,9.1,46.82418,-95.3857,4956852,2024-09-01,2024-09-07,Wolf Lake </br> 9.1%
Sep-01-2024 to Sep-07-2024,MN,Shamineau Lake,1.73,46.25443,-94.6047,4963129,2024-09-01,2024-09-07,Shamineau Lake </br> 1.73%
Sep-01-2024 to Sep-07-2024,MN,Lake Alexander,3.1,46.20752,-94.5415,4963177,2024-09-01,2024-09-07,Lake Alexander </br> 3.1%
Sep-01-2024 to Sep-07-2024,MN,Fish Trap Lake,15.18,46.21198,-94.6177,4963181,2024-09-01,2024-09-07,Fish Trap Lake </br> 15.18%
Sep-01-2024 to Sep-07-2024,MN,Lake Irene,7.12,46.06113,-95.3074,4964681,2024-09-01,2024-09-07,Lake Irene </br> 7.12%
Sep-01-2024 to Sep-07-2024,MN,Lake Miltona,2.27,46.04088,-95.369,4964689,2024-09-01,2024-09-07,Lake Miltona </br> 2.27%
Sep-01-2024 to Sep-07-2024,MN,Lake Carlos,0.44,45.96522,-95.359,4966535,2024-09-01,2024-09-07,Lake Carlos </br> 0.44%
Sep-01-2024 to Sep-07-2024,MN,Lake Le Homme Dieu,0.6,45.92846,-95.3487,4966599,2024-09-01,2024-09-07,Lake Le Homme Dieu </br> 0.6%
Sep-01-2024 to Sep-07-2024,MN,Lake Darling,0.23,45.91935,-95.3968,4966619,2024-09-01,2024-09-07,Lake Darling </br> 0.23%
Sep-01-2024 to Sep-07-2024,MN,Lake Mary,0.75,45.82654,-95.4783,4966777,2024-09-01,2024-09-07,Lake Mary </br> 0.75%
Sep-01-2024 to Sep-07-2024,MN,Lake Andrew,0.45,45.82077,-95.4222,4966827,2024-09-01,2024-09-07,Lake Andrew </br> 0.45%
Sep-01-2024 to Sep-07-2024,MN,Sullivan Lake,2.97,46.15291,-93.9306,4970199,2024-09-01,2024-09-07,Sullivan Lake </br> 2.97%
Sep-01-2024 to Sep-07-2024,MN,Little Rock Lake,86.19,45.73166,-94.1688,4971777,2024-09-01,2024-09-07,Little Rock Lake </br> 86.19%
Sep-01-2024 to Sep-07-2024,MN,Sauk Lake,48.02,45.784910000000004,-94.9361,4978558,2024-09-01,2024-09-07,Sauk Lake </br> 48.02%
Sep-01-2024 to Sep-07-2024,MN,Big Birch Lake,1.8,45.77879,-94.7497,4978640,2024-09-01,2024-09-07,Big Birch Lake </br> 1.8%
Sep-01-2024 to Sep-07-2024,MN,Lake Osakis,45.07,45.90299,-95.1172,4980330,2024-09-01,2024-09-07,Lake Osakis </br> 45.07%
Sep-01-2024 to Sep-07-2024,MN,Grand Lake,28.42,45.43684,-94.3369,4981198,2024-09-01,2024-09-07,Grand Lake </br> 28.42%
Sep-01-2024 to Sep-07-2024,MN,Pearl Lake,54.66,45.399,-94.3063,4981268,2024-09-01,2024-09-07,Pearl Lake </br> 54.66%
Sep-01-2024 to Sep-07-2024,ME,Grand Lake,1.22,45.71273,-67.7984,5194604,2024-09-01,2024-09-07,Grand Lake </br> 1.22%
Sep-01-2024 to Sep-07-2024,ME,Brackett Lake,3.22,45.74557,-67.8607,5194620,2024-09-01,2024-09-07,Brackett Lake </br> 3.22%
Sep-01-2024 to Sep-07-2024,ME,Spednic Lake,1.77,45.60715,-67.5866,5194634,2024-09-01,2024-09-07,Spednic Lake </br> 1.77%
Sep-01-2024 to Sep-07-2024,ME,East Musquash Lake,1.57,45.40914,-67.8006,5195104,2024-09-01,2024-09-07,East Musquash Lake </br> 1.57%
Sep-01-2024 to Sep-07-2024,ME,Pleasant Lake,0.78,45.35434,-67.9192,5195160,2024-09-01,2024-09-07,Pleasant Lake </br> 0.78%
Sep-01-2024 to Sep-07-2024,ME,West Musquash Lake,1.74,45.33495,-67.8322,5195184,2024-09-01,2024-09-07,West Musquash Lake </br> 1.74%
Sep-01-2024 to Sep-07-2024,ME,Big Lake,1.89,45.25976,-67.537,5195222,2024-09-01,2024-09-07,Big Lake </br> 1.89%
Sep-01-2024 to Sep-07-2024,ME,Lewy Lake,1.3,45.17621,-67.6745,5195294,2024-09-01,2024-09-07,Lewy Lake </br> 1.3%
Sep-01-2024 to Sep-07-2024,ME,Wabassus Lake,2.75,45.15288,-67.8832,5195346,2024-09-01,2024-09-07,Wabassus Lake </br> 2.75%
Sep-01-2024 to Sep-07-2024,ME,Upper Sysladobsis Lake,1.26,45.3018,-68.1259,5197464,2024-09-01,2024-09-07,Upper Sysladobsis Lake </br> 1.26%
Sep-01-2024 to Sep-07-2024,ME,Alford Lake,3.25,44.23736,-69.2158,5202150,2024-09-01,2024-09-07,Alford Lake </br> 3.25%
Sep-01-2024 to Sep-07-2024,ME,Damariscotta lake,1.39,44.14691,-69.4864,5202226,2024-09-01,2024-09-07,Damariscotta lake </br> 1.39%
Sep-01-2024 to Sep-07-2024,ME,Pemaquid Pond,3.94,44.05099,-69.4521,5202348,2024-09-01,2024-09-07,Pemaquid Pond </br> 3.94%
Sep-01-2024 to Sep-07-2024,ME,Sheepscot Pond,4.72,44.3617,-69.4304,5203442,2024-09-01,2024-09-07,Sheepscot Pond </br> 4.72%
Sep-01-2024 to Sep-07-2024,OH,Williams Lake,1.94,40.22616,-82.9658,5212313,2024-09-01,2024-09-07,Williams Lake </br> 1.94%
Sep-01-2024 to Sep-07-2024,OH,Hoover Reservoir,60.25,40.16639,-82.8791,5212351,2024-09-01,2024-09-07,Hoover Reservoir </br> 60.25%
Sep-01-2024 to Sep-07-2024,OH,Rocky Fork Lake,10.17,39.18619,-83.4833,5231452,2024-09-01,2024-09-07,Rocky Fork Lake </br> 10.17%
Sep-01-2024 to Sep-07-2024,CO,Elevenmile Canyon Reservoir,10.71,38.93011,-105.519,5241028,2024-09-01,2024-09-07,Elevenmile Canyon Reservoir </br> 10.71%
Sep-01-2024 to Sep-07-2024,TX,Lake Cherokee,1.63,32.35682,-94.6626,5278062,2024-09-01,2024-09-07,Lake Cherokee </br> 1.63%
Sep-01-2024 to Sep-07-2024,TX,Martin Lake,17.78,32.23937,-94.576,5278224,2024-09-01,2024-09-07,Martin Lake </br> 17.78%
Sep-01-2024 to Sep-07-2024,TX,Lake Murvaul,52.17,32.03817,-94.4609,5278562,2024-09-01,2024-09-07,Lake Murvaul </br> 52.17%
Sep-01-2024 to Sep-07-2024,TX,Willow Lake,23.99,28.42547,-97.2739,5289007,2024-09-01,2024-09-07,Willow Lake </br> 23.99%
Sep-01-2024 to Sep-07-2024,TX,Monticello Reservoir,1.09,33.06119,-95.0557,5292281,2024-09-01,2024-09-07,Monticello Reservoir </br> 1.09%
Sep-01-2024 to Sep-07-2024,TX,Case Lake,9.5,32.87821,-95.598,5292739,2024-09-01,2024-09-07,Case Lake </br> 9.5%
Sep-01-2024 to Sep-07-2024,SD,Belle Fourche Reservoir,2.39,44.7342,-103.705,5451158,2024-09-01,2024-09-07,Belle Fourche Reservoir </br> 2.39%
Sep-01-2024 to Sep-07-2024,TX,Fort Phantom Hill Lake,60.8,32.58679,-99.6865,5489185,2024-09-01,2024-09-07,Fort Phantom Hill Lake </br> 60.8%
Sep-01-2024 to Sep-07-2024,TX,Lake Graham,3.33,33.15776,-98.6312,5494328,2024-09-01,2024-09-07,Lake Graham </br> 3.33%
Sep-01-2024 to Sep-07-2024,TX,Palo Pinto Creek Reservoir,30.25,32.63983,-98.3073,5495308,2024-09-01,2024-09-07,Palo Pinto Creek Reservoir </br> 30.25%
Sep-01-2024 to Sep-07-2024,TX,Safe Shutdown Impoundment,15.22,32.30943,-97.78,5511582,2024-09-01,2024-09-07,Safe Shutdown Impoundment </br> 15.22%
Sep-01-2024 to Sep-07-2024,TX,Lake Pat Cleburne,77.59,32.30207,-97.4314,5511586,2024-09-01,2024-09-07,Lake Pat Cleburne </br> 77.59%
Sep-01-2024 to Sep-07-2024,TX,Tradinghouse Creek Reservoir,57.91,31.5641,-96.9607,5513974,2024-09-01,2024-09-07,Tradinghouse Creek Reservoir </br> 57.91%
Sep-01-2024 to Sep-07-2024,TX,E Hubbard Creek Reservoir,1.29,32.80802,-98.979,5525777,2024-09-01,2024-09-07,E Hubbard Creek Reservoir </br> 1.29%
Sep-01-2024 to Sep-07-2024,TX,Waco Lake,69.19,31.56888,-97.2339,5531262,2024-09-01,2024-09-07,Waco Lake </br> 69.19%
Sep-01-2024 to Sep-07-2024,TX,Somerville Lake,57.26,30.31096,-96.587,5569731,2024-09-01,2024-09-07,Somerville Lake </br> 57.26%
Sep-01-2024 to Sep-07-2024,TX,Lake Limestone,33.72,31.40082,-96.3455,5575089,2024-09-01,2024-09-07,Lake Limestone </br> 33.72%
Sep-01-2024 to Sep-07-2024,TX,Lake J B Thomas,2.03,32.58362,-101.16,5632093,2024-09-01,2024-09-07,Lake J B Thomas </br> 2.03%
Sep-01-2024 to Sep-07-2024,TX,Granger Lake,60.7,30.69712,-97.3596,5670421,2024-09-01,2024-09-07,Granger Lake </br> 60.7%
Sep-01-2024 to Sep-07-2024,TX,Twin Buttes Reservoir,17.65,31.35291,-100.545,5702167,2024-09-01,2024-09-07,Twin Buttes Reservoir </br> 17.65%
Sep-01-2024 to Sep-07-2024,TX,E V Spence Reservoir,10.1,31.93491,-100.579,5722027,2024-09-01,2024-09-07,E V Spence Reservoir </br> 10.1%
Sep-01-2024 to Sep-07-2024,TX,Brownwood Lake,4.91,31.84974,-99.0417,5734861,2024-09-01,2024-09-07,Brownwood Lake </br> 4.91%
Sep-01-2024 to Sep-07-2024,TX,Brady Reservoir,87.67,31.13857,-99.4122,5753298,2024-09-01,2024-09-07,Brady Reservoir </br> 87.67%
Sep-01-2024 to Sep-07-2024,TX,Buchanan Lake,3.86,30.81578,-98.4226,5756886,2024-09-01,2024-09-07,Buchanan Lake </br> 3.86%
Sep-01-2024 to Sep-07-2024,TX,Lake Lyndon B Johnson,7.55,30.57987,-98.3873,5756952,2024-09-01,2024-09-07,Lake Lyndon B Johnson </br> 7.55%
Sep-01-2024 to Sep-07-2024,TX,Cedar Creek Reservoir,61.08,29.93032,-96.734,5791260,2024-09-01,2024-09-07,Cedar Creek Reservoir </br> 61.08%
Sep-01-2024 to Sep-07-2024,NH,Bow Lake,2.65,43.24804,-71.1809,5846926,2024-09-01,2024-09-07,Bow Lake </br> 2.65%
Sep-01-2024 to Sep-07-2024,MA,Snipatuit Pond,1.73,41.77404,-70.8625,5877705,2024-09-01,2024-09-07,Snipatuit Pond </br> 1.73%
Sep-01-2024 to Sep-07-2024,MA,Mashpee & Wakeby Ponds,2.56,41.66746,-70.486,5878245,2024-09-01,2024-09-07,Mashpee & Wakeby Ponds </br> 2.56%
Sep-01-2024 to Sep-07-2024,MA,North Watuppa Lake,4.87,41.70722,-71.1059,5880789,2024-09-01,2024-09-07,North Watuppa Lake </br> 4.87%
Sep-01-2024 to Sep-07-2024,MA,Copicut Reservoir,11.61,41.70877,-71.0361,5880839,2024-09-01,2024-09-07,Copicut Reservoir </br> 11.61%
Sep-01-2024 to Sep-07-2024,MA,South Watuppa Pond,89.97,41.66438,-71.1264,5880937,2024-09-01,2024-09-07,South Watuppa Pond </br> 89.97%
Sep-01-2024 to Sep-07-2024,MA,Squibnocket Pond,2.44,41.31726,-70.7861,5882095,2024-09-01,2024-09-07,Squibnocket Pond </br> 2.44%
Sep-01-2024 to Sep-07-2024,KS,Webster Reservoir,69.97,39.39323,-99.4549,5943595,2024-09-01,2024-09-07,Webster Reservoir </br> 69.97%
Sep-01-2024 to Sep-07-2024,MO,Silver Lake Pool,13.45,39.6138,-93.1748,5967404,2024-09-01,2024-09-07,Silver Lake Pool </br> 13.45%
Sep-01-2024 to Sep-07-2024,OK,Lake Konawa,11.23,34.96402,-96.7134,6027864,2024-09-01,2024-09-07,Lake Konawa </br> 11.23%
Sep-01-2024 to Sep-07-2024,OK,Wister Lake,21.5,34.93087,-94.7591,6043008,2024-09-01,2024-09-07,Wister Lake </br> 21.5%
Sep-01-2024 to Sep-07-2024,MA,Assawompset Pond,0.99,41.83663,-70.9148,6126157,2024-09-01,2024-09-07,Assawompset Pond </br> 0.99%
Sep-01-2024 to Sep-07-2024,MA,Long Pond,1.02,41.80145,-70.9446,6126185,2024-09-01,2024-09-07,Long Pond </br> 1.02%
Sep-01-2024 to Sep-07-2024,MA,Great Quittacas Pond,2.05,41.80042,-70.8974,6126199,2024-09-01,2024-09-07,Great Quittacas Pond </br> 2.05%
Sep-01-2024 to Sep-07-2024,RI,Scituate Reservoir,3.93,41.80816,-71.5957,6127173,2024-09-01,2024-09-07,Scituate Reservoir </br> 3.93%
Sep-01-2024 to Sep-07-2024,RI,Scituate Reservoir,2.62,41.77251,-71.611,6127281,2024-09-01,2024-09-07,Scituate Reservoir </br> 2.62%
Sep-01-2024 to Sep-07-2024,RI,Worden Pond,3.08,41.43915,-71.5749,6140554,2024-09-01,2024-09-07,Worden Pond </br> 3.08%
Sep-01-2024 to Sep-07-2024,RI,Watchaug Pond,1.65,41.38404,-71.6911,6140612,2024-09-01,2024-09-07,Watchaug Pond </br> 1.65%
Sep-01-2024 to Sep-07-2024,RI,Ninigret Pond,0.94,41.3612,-71.654,6140634,2024-09-01,2024-09-07,Ninigret Pond </br> 0.94%
Sep-01-2024 to Sep-07-2024,MA,Webster Lake,4.32,42.04088,-71.8446,6144103,2024-09-01,2024-09-07,Webster Lake </br> 4.32%
Sep-01-2024 to Sep-07-2024,CT,Lake Gaillard,2.88,41.34944,-72.7758,6176462,2024-09-01,2024-09-07,Lake Gaillard </br> 2.88%
Sep-01-2024 to Sep-07-2024,NY,Ashokan Reservoir,2.86,41.97614,-74.1522,6191412,2024-09-01,2024-09-07,Ashokan Reservoir </br> 2.86%
Sep-01-2024 to Sep-07-2024,NY,Ashokan Reservoir,2.11,41.95886,-74.243,6191414,2024-09-01,2024-09-07,Ashokan Reservoir </br> 2.11%
Sep-01-2024 to Sep-07-2024,NY,Rondout Reservoir,2.37,41.82605,-74.4718,6199522,2024-09-01,2024-09-07,Rondout Reservoir </br> 2.37%
Sep-01-2024 to Sep-07-2024,NY,Orange Lake,77.64,41.54905,-74.1036,6213032,2024-09-01,2024-09-07,Orange Lake </br> 77.64%
Sep-01-2024 to Sep-07-2024,NY,Kensico Reservoir,2.29,41.08937,-73.7455,6240309,2024-09-01,2024-09-07,Kensico Reservoir </br> 2.29%
Sep-01-2024 to Sep-07-2024,NY,Greenwood Lake,39.64,41.18539,-74.322,6244708,2024-09-01,2024-09-07,Greenwood Lake </br> 39.64%
Sep-01-2024 to Sep-07-2024,NJ,Wanaque Reservoir,10.36,41.07097,-74.2924,6244860,2024-09-01,2024-09-07,Wanaque Reservoir </br> 10.36%
Sep-01-2024 to Sep-07-2024,NJ,Boonton Reservoir,18.16,40.88257,-74.4082,6248826,2024-09-01,2024-09-07,Boonton Reservoir </br> 18.16%
Sep-01-2024 to Sep-07-2024,GA,Lake Tobesofkee,4.79,32.83627,-83.8092,6339936,2024-09-01,2024-09-07,Lake Tobesofkee </br> 4.79%
Sep-01-2024 to Sep-07-2024,GA,Carters Lake,3.32,34.61776,-84.6338,6479321,2024-09-01,2024-09-07,Carters Lake </br> 3.32%
Sep-01-2024 to Sep-07-2024,GA,Lake Sidney Lanier,1.56,34.20748,-84.0463,6495106,2024-09-01,2024-09-07,Lake Sidney Lanier </br> 1.56%
Sep-01-2024 to Sep-07-2024,MN,Albert Lea Lake,73.72,43.63017,-93.313,6558643,2024-09-01,2024-09-07,Albert Lea Lake </br> 73.72%
Sep-01-2024 to Sep-07-2024,IA,Clear Lake,74.05,43.12445,-93.4212,6565809,2024-09-01,2024-09-07,Clear Lake </br> 74.05%
Sep-01-2024 to Sep-07-2024,MN,Lake Sarah,26.84,44.15423,-95.7673,6579638,2024-09-01,2024-09-07,Lake Sarah </br> 26.84%
Sep-01-2024 to Sep-07-2024,MN,Wildlife Impoundment,88.88,43.8772,-95.4536,6580624,2024-09-01,2024-09-07,Wildlife Impoundment </br> 88.88%
Sep-01-2024 to Sep-07-2024,MN,West Graham Lake,61.16,43.8022,-95.5144,6580706,2024-09-01,2024-09-07,West Graham Lake </br> 61.16%
Sep-01-2024 to Sep-07-2024,MN,Heron Lake,69.16,43.77322,-95.266,6580726,2024-09-01,2024-09-07,Heron Lake </br> 69.16%
Sep-01-2024 to Sep-07-2024,MN,South Heron Lake,68.8,43.72304,-95.2352,6580736,2024-09-01,2024-09-07,South Heron Lake </br> 68.8%
Sep-01-2024 to Sep-07-2024,IA,Silver Lake,76.84,43.03273,-94.887200000000007,6586887,2024-09-01,2024-09-07,Silver Lake </br> 76.84%
Sep-01-2024 to Sep-07-2024,MN,Bright Lake,90.09,43.56051,-94.578,6590532,2024-09-01,2024-09-07,Bright Lake </br> 90.09%
Sep-01-2024 to Sep-07-2024,IA,Storm Lake,17.68,42.62603,-95.2064,6606076,2024-09-01,2024-09-07,Storm Lake </br> 17.68%
Sep-01-2024 to Sep-07-2024,IA,Arrowhead Lake,54.42,42.29821,-95.0255,6608534,2024-09-01,2024-09-07,Arrowhead Lake </br> 54.42%
Sep-01-2024 to Sep-07-2024,MN,Lake Traverse,78.75,45.80034,-96.6049,6639922,2024-09-01,2024-09-07,Lake Traverse </br> 78.75%
Sep-01-2024 to Sep-07-2024,MN,Lake Traverse,72.65,45.70447,-96.7311,6640180,2024-09-01,2024-09-07,Lake Traverse </br> 72.65%
Sep-01-2024 to Sep-07-2024,MN,Lightning Lake,75.24,46.06931,-96.0848,6644772,2024-09-01,2024-09-07,Lightning Lake </br> 75.24%
Sep-01-2024 to Sep-07-2024,MN,East Toqua Lake,76.25,45.56135,-96.444,6646370,2024-09-01,2024-09-07,East Toqua Lake </br> 76.25%
Sep-01-2024 to Sep-07-2024,MN,Many Point Lake,3.49,47.07621,-95.537,6652551,2024-09-01,2024-09-07,Many Point Lake </br> 3.49%
Sep-01-2024 to Sep-07-2024,MN,Round Lake,1.75,47.03807,-95.5421,6652777,2024-09-01,2024-09-07,Round Lake </br> 1.75%
Sep-01-2024 to Sep-07-2024,MN,Upper Cormorant Lake,42.06,46.77885,-96.1314,6653711,2024-09-01,2024-09-07,Upper Cormorant Lake </br> 42.06%
Sep-01-2024 to Sep-07-2024,MN,Big Cormorant Lake,3.99,46.76731,-96.0584,6653737,2024-09-01,2024-09-07,Big Cormorant Lake </br> 3.99%
Sep-01-2024 to Sep-07-2024,MN,Lake Ida,22.64,46.73221,-96.0988,6653905,2024-09-01,2024-09-07,Lake Ida </br> 22.64%
Sep-01-2024 to Sep-07-2024,MN,Prairie Lake,8.43,46.60131,-96.0719,6654109,2024-09-01,2024-09-07,Prairie Lake </br> 8.43%
Sep-01-2024 to Sep-07-2024,MN,Flat Lake,86.79,46.97471,-95.6549,6654439,2024-09-01,2024-09-07,Flat Lake </br> 86.79%
Sep-01-2024 to Sep-07-2024,MN,Tamarac Lake,36.36,46.92495,-95.6742,6654571,2024-09-01,2024-09-07,Tamarac Lake </br> 36.36%
Sep-01-2024 to Sep-07-2024,MN,Island Lake,7.44,46.9301,-95.5319,6654581,2024-09-01,2024-09-07,Island Lake </br> 7.44%
Sep-01-2024 to Sep-07-2024,MN,Height of Land Lake,9.95,46.89143,-95.6066,6654673,2024-09-01,2024-09-07,Height of Land Lake </br> 9.95%
Sep-01-2024 to Sep-07-2024,MN,Cotton Lake,1.89,46.88281,-95.6982,6654733,2024-09-01,2024-09-07,Cotton Lake </br> 1.89%
Sep-01-2024 to Sep-07-2024,MN,Floyd Lake,5.37,46.87126,-95.8578,6654769,2024-09-01,2024-09-07,Floyd Lake </br> 5.37%
Sep-01-2024 to Sep-07-2024,MN,Toad Lake,20.11,46.86524,-95.4908,6654805,2024-09-01,2024-09-07,Toad Lake </br> 20.11%
Sep-01-2024 to Sep-07-2024,MN,Detroit Lake,1.43,46.7891,-95.8317,6655119,2024-09-01,2024-09-07,Detroit Lake </br> 1.43%
Sep-01-2024 to Sep-07-2024,MN,Lake Sallie,3.15,46.77095,-95.8956,6655199,2024-09-01,2024-09-07,Lake Sallie </br> 3.15%
Sep-01-2024 to Sep-07-2024,MN,Lake Maud,1.37,46.74697,-95.9839,6655293,2024-09-01,2024-09-07,Lake Maud </br> 1.37%
Sep-01-2024 to Sep-07-2024,MN,Lake Melissa,0.91,46.7423,-95.8974,6655307,2024-09-01,2024-09-07,Lake Melissa </br> 0.91%
Sep-01-2024 to Sep-07-2024,MN,Pelican Lake,0.55,46.70574,-95.9825,6655435,2024-09-01,2024-09-07,Pelican Lake </br> 0.55%
Sep-01-2024 to Sep-07-2024,MN,Rose Lake,0.74,46.67387,-95.7467,6655603,2024-09-01,2024-09-07,Rose Lake </br> 0.74%
Sep-01-2024 to Sep-07-2024,MN,Lake Franklin,0.34,46.6431,-95.9727,6655725,2024-09-01,2024-09-07,Lake Franklin </br> 0.34%
Sep-01-2024 to Sep-07-2024,MN,Big Pine Lake,56.73,46.6091,-95.4954,6655827,2024-09-01,2024-09-07,Big Pine Lake </br> 56.73%
Sep-01-2024 to Sep-07-2024,MN,Little McDonald Lake,0.45,46.61089,-95.7038,6655871,2024-09-01,2024-09-07,Little McDonald Lake </br> 0.45%
Sep-01-2024 to Sep-07-2024,MN,Big McDonald Lake,0.19,46.58107,-95.767,6656013,2024-09-01,2024-09-07,Big McDonald Lake </br> 0.19%
Sep-01-2024 to Sep-07-2024,MN,West McDonald Lake,0.2,46.58204,-95.7887,6656023,2024-09-01,2024-09-07,West McDonald Lake </br> 0.2%
Sep-01-2024 to Sep-07-2024,MN,Marion Lake,3.21,46.53074,-95.6554,6656233,2024-09-01,2024-09-07,Marion Lake </br> 3.21%
Sep-01-2024 to Sep-07-2024,MN,Mud Lake,27.08,46.63356,-95.5605,6656797,2024-09-01,2024-09-07,Mud Lake </br> 27.08%
Sep-01-2024 to Sep-07-2024,MN,Lake Jewett,1.59,46.41194,-96.0501,6657425,2024-09-01,2024-09-07,Lake Jewett </br> 1.59%
Sep-01-2024 to Sep-07-2024,MN,Buchanan Lake,13.83,46.44965,-95.5553,6658499,2024-09-01,2024-09-07,Buchanan Lake </br> 13.83%
Sep-01-2024 to Sep-07-2024,MN,Long Lake,88.39,46.45119,-95.6347,6658507,2024-09-01,2024-09-07,Long Lake </br> 88.39%
Sep-01-2024 to Sep-07-2024,MN,Walker Lake,15.8,46.43529,-95.6774,6658543,2024-09-01,2024-09-07,Walker Lake </br> 15.8%
Sep-01-2024 to Sep-07-2024,MN,Otter Tail Lake,0.5,46.39913,-95.6616,6658551,2024-09-01,2024-09-07,Otter Tail Lake </br> 0.5%
Sep-01-2024 to Sep-07-2024,MN,Fish Lake,11.97,46.35723,-95.9298,6658667,2024-09-01,2024-09-07,Fish Lake </br> 11.97%
Sep-01-2024 to Sep-07-2024,MN,East Lost Lake,6.08,46.35794,-95.7784,6658673,2024-09-01,2024-09-07,East Lost Lake </br> 6.08%
Sep-01-2024 to Sep-07-2024,MN,Lake Blanche,0.64,46.34794,-95.6593,6658711,2024-09-01,2024-09-07,Lake Blanche </br> 0.64%
Sep-01-2024 to Sep-07-2024,MN,West Battle Lake,0.46,46.29477,-95.6589,6658833,2024-09-01,2024-09-07,West Battle Lake </br> 0.46%
Sep-01-2024 to Sep-07-2024,MN,East Battle Lake,0.79,46.29551,-95.5496,6658837,2024-09-01,2024-09-07,East Battle Lake </br> 0.79%
Sep-01-2024 to Sep-07-2024,MN,Wall Lake,2.88,46.27333,-95.9643,6658861,2024-09-01,2024-09-07,Wall Lake </br> 2.88%
Sep-01-2024 to Sep-07-2024,MN,Clitherall Lake,1.03,46.25042,-95.6664,6658899,2024-09-01,2024-09-07,Clitherall Lake </br> 1.03%
Sep-01-2024 to Sep-07-2024,ND,Grass Lake,47.07,46.09872,-97.2381,6675304,2024-09-01,2024-09-07,Grass Lake </br> 47.07%
Sep-01-2024 to Sep-07-2024,MN,Albert Lake,7.59,46.92656,-95.7564,6689713,2024-09-01,2024-09-07,Albert Lake </br> 7.59%
Sep-01-2024 to Sep-07-2024,ME,Webb Lake,2.06,44.69607,-70.4478,6709789,2024-09-01,2024-09-07,Webb Lake </br> 2.06%
Sep-01-2024 to Sep-07-2024,ME,Ellis Pond,2.34,44.66007,-70.6759,6709797,2024-09-01,2024-09-07,Ellis Pond </br> 2.34%
Sep-01-2024 to Sep-07-2024,ME,Sabattus Pond,76.71,44.1467,-70.0984,6711483,2024-09-01,2024-09-07,Sabattus Pond </br> 76.71%
Sep-01-2024 to Sep-07-2024,ME,Lake Auburn,1.02,44.14685,-70.2526,6711485,2024-09-01,2024-09-07,Lake Auburn </br> 1.02%
Sep-01-2024 to Sep-07-2024,ME,Thompson Lake,0.99,44.0723,-70.4889,6711523,2024-09-01,2024-09-07,Thompson Lake </br> 0.99%
Sep-01-2024 to Sep-07-2024,ME,Taylor Pond,0.97,44.10628,-70.2794,6711533,2024-09-01,2024-09-07,Taylor Pond </br> 0.97%
Sep-01-2024 to Sep-07-2024,ME,Pleasant Lake,1.04,44.03691,-70.5249,6718889,2024-09-01,2024-09-07,Pleasant Lake </br> 1.04%
Sep-01-2024 to Sep-07-2024,ME,Brandy Pond,1.2,43.95544,-70.5897,6719641,2024-09-01,2024-09-07,Brandy Pond </br> 1.2%
Sep-01-2024 to Sep-07-2024,ME,Peabody Pond,2.68,43.94445,-70.6877,6719667,2024-09-01,2024-09-07,Peabody Pond </br> 2.68%
Sep-01-2024 to Sep-07-2024,ME,Panther Pond,0.96,43.92643,-70.4679,6719681,2024-09-01,2024-09-07,Panther Pond </br> 0.96%
Sep-01-2024 to Sep-07-2024,ME,Sebago Lake Basin,1.69,43.85611,-70.5483,6719717,2024-09-01,2024-09-07,Sebago Lake Basin </br> 1.69%
Sep-01-2024 to Sep-07-2024,ME,Upper Bay,3.34,43.87862,-70.4132,6719733,2024-09-01,2024-09-07,Upper Bay </br> 3.34%
Sep-01-2024 to Sep-07-2024,NH,Squam Lake,1.6,43.75096,-71.5248,6729259,2024-09-01,2024-09-07,Squam Lake </br> 1.6%
Sep-01-2024 to Sep-07-2024,NH,Newfound Lake,2.18,43.6602,-71.7686,6729343,2024-09-01,2024-09-07,Newfound Lake </br> 2.18%
Sep-01-2024 to Sep-07-2024,NH,Lake Waukewan,2.24,43.66188,-71.5318,6738156,2024-09-01,2024-09-07,Lake Waukewan </br> 2.24%
Sep-01-2024 to Sep-07-2024,NH,Lake Wentworth,1.3,43.59693,-71.1569,6738198,2024-09-01,2024-09-07,Lake Wentworth </br> 1.3%
Sep-01-2024 to Sep-07-2024,NH,Merrymeeting Lake,6.26,43.48774,-71.1571,6738920,2024-09-01,2024-09-07,Merrymeeting Lake </br> 6.26%
Sep-01-2024 to Sep-07-2024,NH,Webster Lake,2.58,43.47029,-71.6865,6738922,2024-09-01,2024-09-07,Webster Lake </br> 2.58%
Sep-01-2024 to Sep-07-2024,NH,Pleasant Lake,2.36,43.42593,-71.9534,6760512,2024-09-01,2024-09-07,Pleasant Lake </br> 2.36%
Sep-01-2024 to Sep-07-2024,WI,Presque Isle Lake,1.5,46.22258,-89.7798,6792133,2024-09-01,2024-09-07,Presque Isle Lake </br> 1.5%
Sep-01-2024 to Sep-07-2024,WI,Nocquebay Lake 118,3.18,45.25674,-87.9077,6818344,2024-09-01,2024-09-07,Nocquebay Lake 118 </br> 3.18%
Sep-01-2024 to Sep-07-2024,WI,White Potato Lake,6.06,45.14429,-88.2108,6819818,2024-09-01,2024-09-07,White Potato Lake </br> 6.06%
Sep-01-2024 to Sep-07-2024,MI,Ned Lake,7.39,46.44994,-88.3319,6829781,2024-09-01,2024-09-07,Ned Lake </br> 7.39%
Sep-01-2024 to Sep-07-2024,MI,Michigamme Reservoir,3.35,46.17884,-88.2104,6830759,2024-09-01,2024-09-07,Michigamme Reservoir </br> 3.35%
Sep-01-2024 to Sep-07-2024,MI,Fumee Lake,42.98,45.82632,-87.9747,6840347,2024-09-01,2024-09-07,Fumee Lake </br> 42.98%
Sep-01-2024 to Sep-07-2024,WI,Halsey Lake,79.75,45.84794,-88.6328,6842481,2024-09-01,2024-09-07,Halsey Lake </br> 79.75%
Sep-01-2024 to Sep-07-2024,MI,Lake Antoine,5.62,45.83705,-88.0323,6842499,2024-09-01,2024-09-07,Lake Antoine </br> 5.62%
Sep-01-2024 to Sep-07-2024,WI,Lake Butte des Morts,60.33,44.06998,-88.6385,6863055,2024-09-01,2024-09-07,Lake Butte des Morts </br> 60.33%
Sep-01-2024 to Sep-07-2024,WI,Puckaway Lake,30.89,43.75654,-89.1711,6866527,2024-09-01,2024-09-07,Puckaway Lake </br> 30.89%
Sep-01-2024 to Sep-07-2024,WI,Mason Lake,68.32,43.65788,-89.6085,6866613,2024-09-01,2024-09-07,Mason Lake </br> 68.32%
Sep-01-2024 to Sep-07-2024,VA,Claytor Lake,2.65,37.04966,-80.6399,6883548,2024-09-01,2024-09-07,Claytor Lake </br> 2.65%
Sep-01-2024 to Sep-07-2024,MN,Geneva Lake,81.3,43.79228,-93.2734,7014901,2024-09-01,2024-09-07,Geneva Lake </br> 81.3%
Sep-01-2024 to Sep-07-2024,MN,Upper Rice Lake,8.72,47.39444,-95.2952,7027747,2024-09-01,2024-09-07,Upper Rice Lake </br> 8.72%
Sep-01-2024 to Sep-07-2024,MN,Roy Lake,19.19,47.31736,-95.5519,7028003,2024-09-01,2024-09-07,Roy Lake </br> 19.19%
Sep-01-2024 to Sep-07-2024,MN,North Twin Lake,20.32,47.25637,-95.645,7028251,2024-09-01,2024-09-07,North Twin Lake </br> 20.32%
Sep-01-2024 to Sep-07-2024,MN,South Twin Lake,6.77,47.23271,-95.6449,7028377,2024-09-01,2024-09-07,South Twin Lake </br> 6.77%
Sep-01-2024 to Sep-07-2024,MN,Tulaby Lake,29.28,47.15106,-95.6037,7029157,2024-09-01,2024-09-07,Tulaby Lake </br> 29.28%
Sep-01-2024 to Sep-07-2024,MN,White Earth Lake,1.56,47.12738,-95.7553,7029221,2024-09-01,2024-09-07,White Earth Lake </br> 1.56%
Sep-01-2024 to Sep-07-2024,MN,Big Rat Lake,27.41,47.09251,-95.6628,7029509,2024-09-01,2024-09-07,Big Rat Lake </br> 27.41%
Sep-01-2024 to Sep-07-2024,MN,Strawberry Lake,3.73,47.07128,-95.7,7029583,2024-09-01,2024-09-07,Strawberry Lake </br> 3.73%
Sep-01-2024 to Sep-07-2024,MN,Maple Lake,44.3,47.65893,-96.1598,7053191,2024-09-01,2024-09-07,Maple Lake </br> 44.3%
Sep-01-2024 to Sep-07-2024,MN,Clearwater Lake,4.49,47.73413,-95.19,7054479,2024-09-01,2024-09-07,Clearwater Lake </br> 4.49%
Sep-01-2024 to Sep-07-2024,MN,Pine Lake,2.7,47.69354,-95.5263,7054789,2024-09-01,2024-09-07,Pine Lake </br> 2.7%
Sep-01-2024 to Sep-07-2024,MN,Sea Gull Lake,1.1,48.13347,-90.9344,7092575,2024-09-01,2024-09-07,Sea Gull Lake </br> 1.1%
Sep-01-2024 to Sep-07-2024,MN,Gunflint Lake,2.76,48.10001,-90.6739,7092631,2024-09-01,2024-09-07,Gunflint Lake </br> 2.76%
Sep-01-2024 to Sep-07-2024,MN,Iron Lake,3.42,48.22773,-91.9315,7095015,2024-09-01,2024-09-07,Iron Lake </br> 3.42%
Sep-01-2024 to Sep-07-2024,MN,Kekekabic Lake,0.98,48.0655,-91.1865,7095681,2024-09-01,2024-09-07,Kekekabic Lake </br> 0.98%
Sep-01-2024 to Sep-07-2024,MN,South Arm Knife Lake,1.22,48.102,-91.1822,7097721,2024-09-01,2024-09-07,South Arm Knife Lake </br> 1.22%
Sep-01-2024 to Sep-07-2024,MN,Basswood Lake,2.02,48.05634,-91.6322,7097779,2024-09-01,2024-09-07,Basswood Lake </br> 2.02%
Sep-01-2024 to Sep-07-2024,MN,Lac la Croix,1.55,48.31834,-92.121,7100709,2024-09-01,2024-09-07,Lac la Croix </br> 1.55%
Sep-01-2024 to Sep-07-2024,MN,Oyster Lake,3.91,48.22443,-92.1061,7101767,2024-09-01,2024-09-07,Oyster Lake </br> 3.91%
Sep-01-2024 to Sep-07-2024,MN,Lake Agnes,8.52,48.21543,-92.0552,7101819,2024-09-01,2024-09-07,Lake Agnes </br> 8.52%
Sep-01-2024 to Sep-07-2024,MN,Big Moose Lake,0.91,48.04578,-92.0834,7103529,2024-09-01,2024-09-07,Big Moose Lake </br> 0.91%
Sep-01-2024 to Sep-07-2024,MN,Burntside Lake,1.78,47.94684,-91.9594,7107329,2024-09-01,2024-09-07,Burntside Lake </br> 1.78%
Sep-01-2024 to Sep-07-2024,MN,Alice Lake,1.57,47.94211,-91.2165,7107491,2024-09-01,2024-09-07,Alice Lake </br> 1.57%
Sep-01-2024 to Sep-07-2024,MN,Basswood Lake,1.42,47.94972,-91.7419,7107519,2024-09-01,2024-09-07,Basswood Lake </br> 1.42%
Sep-01-2024 to Sep-07-2024,MN,Farm Lake,1.44,47.8862,-91.7631,7107795,2024-09-01,2024-09-07,Farm Lake </br> 1.44%
Sep-01-2024 to Sep-07-2024,MN,Shagawa Lake,36.91,47.91541,-91.8831,7107851,2024-09-01,2024-09-07,Shagawa Lake </br> 36.91%
Sep-01-2024 to Sep-07-2024,MN,Bald Eagle Lake,1.96,47.83783,-91.5707,7108121,2024-09-01,2024-09-07,Bald Eagle Lake </br> 1.96%
Sep-01-2024 to Sep-07-2024,MN,Isabella Lake,1.69,47.81041,-91.2885,7108425,2024-09-01,2024-09-07,Isabella Lake </br> 1.69%
Sep-01-2024 to Sep-07-2024,MN,Perent Lake,2.7,47.79843,-91.1378,7108481,2024-09-01,2024-09-07,Perent Lake </br> 2.7%
Sep-01-2024 to Sep-07-2024,MN,Birch Lake,4.64,47.74583,-91.848,7108515,2024-09-01,2024-09-07,Birch Lake </br> 4.64%
Sep-01-2024 to Sep-07-2024,MN,Silver Island Lake,3,47.73326,-91.1354,7108851,2024-09-01,2024-09-07,Silver Island Lake </br> 3%
Sep-01-2024 to Sep-07-2024,MN,Echo Lake,27.22,48.17665,-92.4724,7137600,2024-09-01,2024-09-07,Echo Lake </br> 27.22%
Sep-01-2024 to Sep-07-2024,MN,Pelican Lake,3.01,48.06199,-92.9057,7138266,2024-09-01,2024-09-07,Pelican Lake </br> 3.01%
Sep-01-2024 to Sep-07-2024,MN,Moose Lake,3.11,48.08146,-92.7898,7138318,2024-09-01,2024-09-07,Moose Lake </br> 3.11%
Sep-01-2024 to Sep-07-2024,MN,Myrtle Lake,58.32,48.07961,-92.68,7138332,2024-09-01,2024-09-07,Myrtle Lake </br> 58.32%
Sep-01-2024 to Sep-07-2024,MN,Vermilion Lake,11.18,47.8832,-92.3985,7142570,2024-09-01,2024-09-07,Vermilion Lake </br> 11.18%
Sep-01-2024 to Sep-07-2024,MN,Eagles Nest Lake Number Three,1.38,47.81439,-92.0898,7143102,2024-09-01,2024-09-07,Eagles Nest Lake Number Three </br> 1.38%
Sep-01-2024 to Sep-07-2024,MN,Johnson Lake,2.49,48.34016,-92.6002,7153174,2024-09-01,2024-09-07,Johnson Lake </br> 2.49%
Sep-01-2024 to Sep-07-2024,MN,Mukooda Lake,1.22,48.33627,-92.4886,7153320,2024-09-01,2024-09-07,Mukooda Lake </br> 1.22%
Sep-01-2024 to Sep-07-2024,MN,Ash Lake,39.28,48.21342,-92.9371,7153992,2024-09-01,2024-09-07,Ash Lake </br> 39.28%
Sep-01-2024 to Sep-07-2024,MN,Black Duck Lake,51.1,48.2021,-92.8218,7154030,2024-09-01,2024-09-07,Black Duck Lake </br> 51.1%
Sep-01-2024 to Sep-07-2024,MN,Nett Lake,1.7,48.11422,-93.1111,7170860,2024-09-01,2024-09-07,Nett Lake </br> 1.7%
Sep-01-2024 to Sep-07-2024,MN,Burntside Lake,0.89,47.91613,-92.0239,7172534,2024-09-01,2024-09-07,Burntside Lake </br> 0.89%
Sep-01-2024 to Sep-07-2024,MN,Lost Lake,36.37,47.82307,-92.4129,7172886,2024-09-01,2024-09-07,Lost Lake </br> 36.37%
Sep-01-2024 to Sep-07-2024,MN,Big Rice Lake,3.03,47.6952,-92.489,7173274,2024-09-01,2024-09-07,Big Rice Lake </br> 3.03%
Sep-01-2024 to Sep-07-2024,MN,Sand Lake,2.62,47.64863,-92.6355,7173388,2024-09-01,2024-09-07,Sand Lake </br> 2.62%
Sep-01-2024 to Sep-07-2024,MN,Sturgeon Lake,4.14,47.67898,-93.052,7175900,2024-09-01,2024-09-07,Sturgeon Lake </br> 4.14%
Sep-01-2024 to Sep-07-2024,MN,Island Lake Reservoir,4.31,47.02199,-92.1809,7177914,2024-09-01,2024-09-07,Island Lake Reservoir </br> 4.31%
Sep-01-2024 to Sep-07-2024,SD,Lake Herman,70.96,43.98864,-97.1719,7219306,2024-09-01,2024-09-07,Lake Herman </br> 70.96%
Sep-01-2024 to Sep-07-2024,SD,Clear Lake,71.56,43.76074,-97.0121,7220310,2024-09-01,2024-09-07,Clear Lake </br> 71.56%
Sep-01-2024 to Sep-07-2024,SD,Bourne Slough,76.2,43.94599,-96.9946,7221450,2024-09-01,2024-09-07,Bourne Slough </br> 76.2%
Sep-01-2024 to Sep-07-2024,SD,Brant Lake,68.35,43.92162,-96.9487,7221456,2024-09-01,2024-09-07,Brant Lake </br> 68.35%
Sep-01-2024 to Sep-07-2024,KS,Wilson Lake,2.31,38.94028,-98.5577,7330556,2024-09-01,2024-09-07,Wilson Lake </br> 2.31%
Sep-01-2024 to Sep-07-2024,KS,Kirwin Reservoir,2.58,39.65384,-99.1684,7344817,2024-09-01,2024-09-07,Kirwin Reservoir </br> 2.58%
Sep-01-2024 to Sep-07-2024,MO,Pomme de Terre Lake,6.02,37.85322,-93.3307,7387259,2024-09-01,2024-09-07,Pomme de Terre Lake </br> 6.02%
Sep-01-2024 to Sep-07-2024,TN,Open Lake,91.79,35.79349,-89.6949,7470660,2024-09-01,2024-09-07,Open Lake </br> 91.79%
Sep-01-2024 to Sep-07-2024,TN,Upper Blue Basin,59,36.46478,-89.3401,7483602,2024-09-01,2024-09-07,Upper Blue Basin </br> 59%
Sep-01-2024 to Sep-07-2024,TN,Reelfoot - mix land,41.97,36.41785,-89.351,7483614,2024-09-01,2024-09-07,Reelfoot - mix land </br> 41.97%
Sep-01-2024 to Sep-07-2024,TN,Reelfoot Lake,88.13,36.38194,-89.402,7483636,2024-09-01,2024-09-07,Reelfoot Lake </br> 88.13%
Sep-01-2024 to Sep-07-2024,MA,Quaboag Pond,19.3,42.19606,-72.0688,7689341,2024-09-01,2024-09-07,Quaboag Pond </br> 19.3%
Sep-01-2024 to Sep-07-2024,CT,Bantam Lake,58.91,41.70448,-73.2214,7711438,2024-09-01,2024-09-07,Bantam Lake </br> 58.91%
Sep-01-2024 to Sep-07-2024,MN,Lake of the Woods,5.95,49.35547,-95.0507,7748124,2024-09-01,2024-09-07,Lake of the Woods </br> 5.95%
Sep-01-2024 to Sep-07-2024,AR,Lake Dardanelle,1.92,35.33867,-93.3353,7767759,2024-09-01,2024-09-07,Lake Dardanelle </br> 1.92%
Sep-01-2024 to Sep-07-2024,AR,Lake Dardanelle,2.34,35.40922,-93.3317,7767793,2024-09-01,2024-09-07,Lake Dardanelle </br> 2.34%
Sep-01-2024 to Sep-07-2024,AR,Blue Mountain Lake,63.56,35.09943,-93.7007,7801259,2024-09-01,2024-09-07,Blue Mountain Lake </br> 63.56%
Sep-01-2024 to Sep-07-2024,AR,Harris Brake Public Fishing Lake,35.61,34.97655,-92.7714,7826252,2024-09-01,2024-09-07,Harris Brake Public Fishing Lake </br> 35.61%
Sep-01-2024 to Sep-07-2024,AR,Nimrod Lake,49.18,34.95496,-93.2133,7827790,2024-09-01,2024-09-07,Nimrod Lake </br> 49.18%
Sep-01-2024 to Sep-07-2024,TX,Redfish Lake,58.37,28.7873,-96.5657,7842267,2024-09-01,2024-09-07,Redfish Lake </br> 58.37%
Sep-01-2024 to Sep-07-2024,TX,Swan Lake,31.02,28.73708,-96.5668,7842395,2024-09-01,2024-09-07,Swan Lake </br> 31.02%
Sep-01-2024 to Sep-07-2024,UT,Dike Lake,49.28,41.51061,-112.237,7907220,2024-09-01,2024-09-07,Dike Lake </br> 49.28%
Sep-01-2024 to Sep-07-2024,OR,Drews Reservoir,33.53,42.16955,-120.666,7914901,2024-09-01,2024-09-07,Drews Reservoir </br> 33.53%
Sep-01-2024 to Sep-07-2024,CA,West Valley Reservoir,9.45,41.2011,-120.4,7927103,2024-09-01,2024-09-07,West Valley Reservoir </br> 9.45%
Sep-01-2024 to Sep-07-2024,CA,Moon Lake,5.75,41.08988,-120.398,7927141,2024-09-01,2024-09-07,Moon Lake </br> 5.75%
